~Version Information
 VERS.                2.0:  CWLS LOG ASCII STANDARD -VERSION 2.0
 WRAP.                 NO:  ONE LINE PER DEPTH STEP
~WELL INFORMATION BLOCK
#MNEM.UNIT       DATA              DESCRIPTION OF MNEMONIC
#---------    -------------            ------------------------
 STRT.FT  97.400                         :START DEPTH
 STOP.FT  1255.400                       :STOP DEPTH
 STEP.FT  0.200                          :STEP    UP_HOLE  
 NULL.    -999.25                        :NULL VALUE
 COMP.    BANNER OIL & GAS LLC           :COMPANY
 WELL.    MARY GREEN 41                                                :WELL
 FLD .     REGULAR                       :FIELD\LOCATION
 LOC .          N/A   N/A                :LOCATION
 CNTY.    ARCHER                         :COUNTY
 STAT.    TEXAS                          :STATE
 CTRY.    USA                            :COUNTRY
 SRVC.    45                             :SERVICE COMPANY
 DATE.    07/31/2015                     :LOG DATE
 API .   42-009-42911                        :API NUMBER
 LIC .    N/A                            :LICENSE NUMBER
~Curve Information Block
#MNEM.UNIT      API CODE     Curve Description
#---------    -------------  ------------------------
 DEPT     .FT        00 001 00 00          :  1  DEPTH   
 GAMMA    .API-GR    00 310 00 00          :  2  GAMMA RAY           
 TEMP     .DEG F     00 660 00 00          :  3  TEMPERATURE         
 POR(NEU) .PERCENT   00 330 00 00          :  4  NEUTRON POROSITY    
 1N       .OHM-M     00 000 00 00          :  5  1N                  
 2N       .OHM-M     00 000 00 00          :  6  2N                  
 CALIPER  .INCH      00 280 00 00          :  7  SHORT ARM CALIPER   
 PHOTO EL .BARNS/E   00 000 00 00          :  8  PHOTO EL            
 POR(DEN) .PERCENT   00 890 00 00          :  9  DENSITY POROSITY    
 DEN(CDL) .G/CC      00 350 00 00          : 10  COMPENSATED DENSITY 
 COMP     .G/CC      00 356 00 00          : 11  DEN COMPENSATION    
 RES(MG)  .OHM-M     00 220 00 00          : 12  MEDIUM GUARD RES    
 SP       .MV        00 010 00 00          : 13  SPON POTENTIAL      
 RES(MI)  .OHM-M     00 120 00 00          : 14  MED INDUCTION RES   
 RES(DI)  .OHM-M     00 120 00 00          : 15  DEEP INDUCTION RES  
 TENSION  .CPS       00 000 00 00          : 16  LINE TENSION        
~Parameter Information Block
#MNEM.UNIT   Information     Description
#---------- ---------------  ------------------------
 FILE.      PROCESSED          :File Type
 FIID.      4000               :File Type Identifier
 VERS.      4.00T              :System Version
 SER .      1                  :System Serial Number
 TRUK.      .67455             :Truck Calibration Number
 TOOL.        2487             :Tool Serial Number
 TIME.      1042               :Time    HrHrMinMin
 LAT .      N/A                :Latitude
 LON .      N/A                :Longitude
 LMF .      K.B.               :Log Measured From
 DMF .      K.B.               :Driller Measured From
 PD  .      G.L.               :Permanent Data
 PDEV.                         :Elevation Permanent Data
 EKB .M                        :Elevation Kelly Bushing
 ELEV.DF                       :Elevation DF
 EGL .M                        :Elevation Ground Level
 DRDP.      1260               :Driller's Depth
 CASD.                         :Casing Diameter
 CASB.      0                  :Casing Bottom
 CASX.      STEEL              :Casing Type
 CAST.      NA                 :Casing Thickness
 TNOC.      20:00              :Time Circulation Stopped
 LOGU.      806                :Logging Unit
 RECB.      J FRANKLIN         :Recorded By
 OSR1.      DIL DEN            :Other Services
 OSR2.      NEUT ML            :Other Services
 OSR3.                         :Other Services
 BS  .IN        6.75           :Bit Size
 MST .      DP                 :Mean Surface Temperature
 TGRD.      NA                 :Temperature Gradiant
 MAGN.      4                  :Magnetic Declination
 MDEN.      2.71               :Density Matrix
 MATR.      LIMESTONE          :Neutron Matrix
 DTMT.      49                 :Delta T Matrix
 DTFL.                         :Delta T Fluid
 MUDS.      PIT                :Mud Sample Source
 MRS .      2.2                :Mud Resistivity
 MTP .      78                 :Mud Temperature
 MFRS.      1.66               :Resistivity Mud Filtrate
 MFTP.                         :Temperature Mud Filtrate
 MCRS.      3.3                :Resistivity Mud Cake
 MCTP.                         :Temperature Mud Cake
 FTYP.      FGM                :Fluid Type
 FD  .LB/G   9.1               :Mud Weight
 DFV .S                        :Fluid Viscosity
 FPH .                         :Fuild PH
 ELCO.      10000              :Electron Cutoff
 CASL.      8.62               :Casing Logger
 LOTD.      1250               :Logger TD
 ARTM.      21:15              :Arrival Time
 DPTM.      23:15              :Departure Time
 RIGN.      RIG 1              :Rig Number
~Other Information
#MNEM.UNIT  Information      Description
#---------- ---------------  ------------------------
# -------------------------- 
~A DEPTH  GAMMA    TEMP  POR(NEU) 1N    2N    CALIPER PHOTO EL POR(DEN) DEN(CDL) COMP  RES(MG)  SP    RES(MI)  RES(DI)  TENSION  
# ...
1013.600     67.9  72.2  15.8      1.7   1.2   6.1     2.2     20.4     2.36     0.075     4.8  185.6     2.8      2.7    345.8  
1013.800     94.0  72.2  16.1      1.5   1.2   6.1     2.2     16.5     2.43     0.120     5.2  187.3     2.8      2.7    352.1  
1014.000     87.0  72.2  13.6      1.9   1.5   6.1     2.0     12.1     2.50     0.145     5.8  188.7     2.8      2.7    353.3  
1014.200     60.0  72.2  17.9      2.6   2.2   6.1     2.4     10.7     2.53     0.112     5.9  185.3     2.8      2.8    342.9  
1014.400     38.2  72.2  18.8      2.6   2.4   6.1     2.6      7.6     2.58     0.091     6.0  184.0     2.8      2.8    335.9  
1014.600     66.1  72.2  18.0      1.9   1.6   6.1     2.6      9.9     2.54     0.071     5.7  178.2     2.9      2.9    332.1  
1014.800     62.6  72.2  14.9      1.6   1.2   6.1     2.3     11.2     2.52     0.072     5.5  177.6     3.0      2.9    332.4  
1015.000     41.7  72.2  15.1      1.6   1.1   6.1     2.4     16.3     2.43     0.015     5.2  188.0     3.1      3.0    333.6  
1015.200     66.1  72.2  17.3      1.3   1.0   6.1     2.6     10.5     2.53     0.060     4.9  192.6     3.1      3.0    334.2  
1015.400     76.6  72.2  20.1      1.4   1.1   6.1     2.8     10.1     2.54     0.057     5.2  193.3     3.2      3.1    337.6  
1015.600    108.0  72.2  17.9      1.6   1.1   6.1     3.2      9.0     2.56     0.069     5.4  194.5     3.3      3.2    341.3  
1015.800     78.3  72.2  23.7      1.5   1.1   6.2     3.5     14.6     2.46     0.044     5.7  197.2     3.3      3.3    345.4  
1016.000     94.0  72.2  18.9      1.5   1.2   6.3     2.4     13.5     2.48     0.033     5.9  199.3     3.4      3.4    346.8  
1016.200    104.5  72.3  17.5      1.5   1.2   6.3     2.4     15.6     2.44     0.022     6.0  201.7     3.4      3.4    345.1  
1016.400    120.2  72.2  17.9      1.5   1.2   6.3     2.7     16.8     2.42     0.010     6.0  201.9     3.5      3.6    341.9  
1016.600    132.4  72.2  14.3      1.5   1.1   6.3     3.1     13.8     2.47     0.028     5.9  201.0     3.5      3.6    336.5  
1016.800    115.0  72.2  14.9      1.6   1.1   6.3     3.3      9.2     2.55     0.060     5.7  197.9     3.6      3.7    333.4  
1017.000     83.6  72.2  18.4      1.3   1.0   6.3     3.2     14.4     2.46     0.032     5.5  193.7     3.7      3.7    335.2  
1017.200     76.6  72.2  16.6      1.1   0.9   6.3     3.4     12.3     2.50     0.050     5.3  194.1     3.8      3.8    337.0  
1017.400     94.0  72.2  18.6      1.3   1.0   6.3     3.1     12.7     2.49     0.043     5.4  196.9     3.8      3.8    338.9  
1017.600     87.0  72.2  16.8      1.4   1.0   6.3     2.7      9.0     2.56     0.052     5.7  200.9     3.9      3.8    341.0  
1017.800    142.9  72.2  20.7      1.5   1.2   6.3     2.8     13.0     2.49     0.019     5.9  204.6     3.9      3.8    343.6  
1018.000    135.9  72.2  17.7      1.7   1.3   6.3     2.7     12.5     2.50     0.010     6.1  205.1     3.9      3.8    345.9  
1018.200     99.3  72.2  27.2      1.7   1.3   6.3     2.8      7.0     2.59     0.055     6.3  205.5     3.9      3.8    342.2  
1018.400    146.4  72.3  19.1      1.3   1.4   6.3     3.2     14.3     2.47     0.006     6.3  206.5     4.0      3.8    337.3  
1018.600     76.6  72.2  20.0      1.4   1.1   6.3     2.5      7.2     2.59     0.059     6.2  206.0     4.0      3.9    332.9  
1018.800    101.0  72.2  23.4      1.4   1.3   6.2     3.3      9.9     2.54     0.030     6.2  206.4     4.0      3.9    328.5  
1019.000    133.3  72.2  20.2      1.5   1.3   6.2     3.0     11.9     2.51     0.010     6.1  206.7     4.0      3.9    329.1  
1019.200    121.9  72.2  19.3      1.5   1.2   6.2     2.8     13.8     2.47     0.002     6.3  206.9     4.0      3.9    332.7  
1019.400     90.5  72.2  20.0      1.5   1.2   6.2     2.6      8.7     2.56     0.042     6.3  207.1     4.0      3.9    338.4  
1019.600    111.5  72.3  20.2      1.5   1.3   6.2     2.7     15.4     2.45     0.006     6.4  206.9     3.9      3.9    347.1  
1019.800    132.4  72.3  21.3      1.5   1.2   6.2     3.0      9.6     2.55     0.056     6.3  206.3     3.9      3.9    353.6  
1020.000    115.0  72.2  19.0      1.6   1.3   6.2     2.9     13.8     2.47     0.019     6.5  205.4     3.8      3.8    350.4  
1020.200    146.4  72.3  20.7      1.6   1.3   6.2     2.7     13.6     2.48     0.006     6.5  205.1     3.8      3.8    341.6  
1020.400     97.5  72.3  13.8      1.5   1.3   6.2     3.0     11.2     2.52     0.033     6.2  202.2     3.7      3.7    333.5  
1020.600     52.1  72.2  15.2      1.4   1.2   6.2     3.1     12.0     2.50     0.024     6.4  200.8     3.6      3.5    330.4  
1020.800    117.6  72.3  18.0      1.2   1.2   6.2     3.1     16.1     2.44     0.001     6.3  199.6     3.6      3.4    329.7  
1021.000    128.9  72.3  16.7      1.3   1.2   6.2     2.6     11.7     2.51     0.035     6.1  199.9     3.5      3.2    329.7  
1021.200     83.6  72.3  14.8      1.4   1.3   6.2     2.7     14.4     2.46     0.016     6.2  200.7     3.4      3.0    330.7  
1021.400     86.2  72.3  15.9      1.6   1.3   6.1     2.6     13.2     2.48     0.036     6.1  199.1     3.2      2.7    336.3  
1021.600     97.5  72.3  18.2      1.6   1.3   6.1     2.5     14.0     2.47     0.024     6.2  197.3     3.1      2.6    341.6  
1021.800    111.5  72.3  18.1      1.8   1.4   6.2     3.2     12.6     2.49     0.044     6.2  197.8     3.0      2.4    346.4  
1022.000    104.5  72.3  18.6      1.8   1.5   6.2     3.1     14.7     2.46     0.033     6.1  198.3     2.8      2.1    348.2  
1022.200    109.7  72.3  16.1      1.8   1.4   6.1     2.6     18.2     2.40     0.004     5.9  198.1     2.7      2.0    342.3  
1022.400    111.5  72.3  15.5      1.6   1.3   6.1     2.8     19.8     2.37     0.017     6.2  198.7     2.5      1.8    338.4  
1022.600    104.5  72.2  16.3      1.8   1.5   6.1     2.5     19.1     2.38     0.055     6.0  196.0     2.3      1.7    335.5  
1022.800    115.0  72.3  15.8      2.5   2.1   6.1     2.9     16.9     2.42     0.103     5.9  191.8     2.2      1.5    333.1  
1023.000     80.9  72.3  15.6      2.6   2.4   6.2     2.3     21.3     2.35     0.085     6.1  188.2     2.0      1.4    333.3  
1023.200     94.0  72.3  17.4      2.2   2.0   6.1     2.6     20.9     2.35     0.107     5.8  183.6     1.9      1.3    335.0  
1023.400     62.6  72.3  15.9      2.2   1.9   6.2     2.0     24.4     2.29     0.086     5.8  178.9     1.7      1.2    336.4  
1023.600     46.9  72.3  17.4      2.1   1.9   6.1     1.8     20.3     2.36     0.102     5.7  174.2     1.6      1.1    337.3  
1023.800     59.1  72.3  16.5      2.3   2.2   6.1     1.5     23.9     2.30     0.065     5.4  168.1     1.5      1.1    343.4  
1024.000     34.7  72.3  16.3      2.5   2.4   6.1     1.4     23.4     2.31     0.063     5.7  162.6     1.4      1.0    351.7  
1024.200     20.7  72.3  18.4      2.3   2.3   6.1     1.9     21.5     2.34     0.090     5.7  158.6     1.3      1.0    350.8  
1024.400     20.7  72.3  15.8      2.3   2.2   6.1     1.4     25.3     2.28     0.048     5.7  157.7     1.3      0.9    341.9  
1024.600     41.7  72.3  13.6      2.3   2.2   6.1     1.6     25.8     2.27     0.056     5.7  157.6     1.2      0.9    327.8  
1024.800     24.2  72.3  15.8      2.3   2.3   6.1     1.5     23.9     2.30     0.066     5.7  157.6     1.2      0.9    326.4  
1025.000     31.2  72.2  15.6      2.2   2.2   6.1     1.2     26.8     2.25     0.030     5.3  157.6     1.1      0.9    331.2  
1025.200     34.7  72.2  17.3      2.2   2.1   6.1     1.6     27.4     2.24     0.026     5.2  157.6     1.1      0.9    336.3  
1025.400     12.9  72.3  13.1      2.2   2.2   6.2     2.0     27.3     2.24     0.040     5.4  157.6     1.1      0.9    338.0  
1025.600     41.7  72.3  15.0      2.2   2.2   6.2     2.0     24.8     2.29     0.058     5.3  157.6     1.1      0.9    337.1  
1025.800     10.3  72.3  15.6      2.3   2.2   6.1     2.1     23.6     2.31     0.070     5.6  157.6     1.1      0.9    339.2  
