~Version Information
 VERS.                2.0:  CWLS LOG ASCII STANDARD -VERSION 2.0
 WRAP.                 NO:  ONE LINE PER DEPTH STEP
~WELL INFORMATION BLOCK
#MNEM.UNIT       DATA              DESCRIPTION OF MNEMONIC
#---------    -------------            ------------------------
 STRT.FT  97.400                         :START DEPTH
 STOP.FT  1255.400                       :STOP DEPTH
 STEP.FT  0.200                          :STEP    UP_HOLE  
 NULL.    -999.25                        :NULL VALUE
 COMP.    BANNER OIL & GAS LLC           :COMPANY
 WELL.    MARY GREEN 41                                                :WELL
 FLD .     REGULAR                       :FIELD\LOCATION
 LOC .          N/A   N/A                :LOCATION
 CNTY.    ARCHER                         :COUNTY
 STAT.    TEXAS                          :STATE
 CTRY.    USA                            :COUNTRY
 SRVC.    45                             :SERVICE COMPANY
 DATE.    07/31/2015                     :LOG DATE
 API .   42-009-42911                        :API NUMBER
 LIC .    N/A                            :LICENSE NUMBER
~Curve Information Block
#MNEM.UNIT      API CODE     Curve Description
#---------    -------------  ------------------------
 DEPT     .FT        00 001 00 00          :  1  DEPTH   
 GAMMA    .API-GR    00 310 00 00          :  2  GAMMA RAY           
 TEMP     .DEG F     00 660 00 00          :  3  TEMPERATURE         
 POR(NEU) .PERCENT   00 330 00 00          :  4  NEUTRON POROSITY    
 1N       .OHM-M     00 000 00 00          :  5  1N                  
 2N       .OHM-M     00 000 00 00          :  6  2N                  
 CALIPER  .INCH      00 280 00 00          :  7  SHORT ARM CALIPER   
 PHOTO EL .BARNS/E   00 000 00 00          :  8  PHOTO EL            
 POR(DEN) .PERCENT   00 890 00 00          :  9  DENSITY POROSITY    
 DEN(CDL) .G/CC      00 350 00 00          : 10  COMPENSATED DENSITY 
 COMP     .G/CC      00 356 00 00          : 11  DEN COMPENSATION    
 RES(MG)  .OHM-M     00 220 00 00          : 12  MEDIUM GUARD RES    
 SP       .MV        00 010 00 00          : 13  SPON POTENTIAL      
 RES(MI)  .OHM-M     00 120 00 00          : 14  MED INDUCTION RES   
 RES(DI)  .OHM-M     00 120 00 00          : 15  DEEP INDUCTION RES  
 TENSION  .CPS       00 000 00 00          : 16  LINE TENSION        
~Parameter Information Block
#MNEM.UNIT   Information     Description
#---------- ---------------  ------------------------
 FILE.      PROCESSED          :File Type
 FIID.      4000               :File Type Identifier
 VERS.      4.00T              :System Version
 SER .      1                  :System Serial Number
 TRUK.      .67455             :Truck Calibration Number
 TOOL.        2487             :Tool Serial Number
 TIME.      1042               :Time    HrHrMinMin
 LAT .      N/A                :Latitude
 LON .      N/A                :Longitude
 LMF .      K.B.               :Log Measured From
 DMF .      K.B.               :Driller Measured From
 PD  .      G.L.               :Permanent Data
 PDEV.                         :Elevation Permanent Data
 EKB .M                        :Elevation Kelly Bushing
 ELEV.DF                       :Elevation DF
 EGL .M                        :Elevation Ground Level
 DRDP.      1260               :Driller's Depth
 CASD.                         :Casing Diameter
 CASB.      0                  :Casing Bottom
 CASX.      STEEL              :Casing Type
 CAST.      NA                 :Casing Thickness
 TNOC.      20:00              :Time Circulation Stopped
 LOGU.      806                :Logging Unit
 RECB.      J FRANKLIN         :Recorded By
 OSR1.      DIL DEN            :Other Services
 OSR2.      NEUT ML            :Other Services
 OSR3.                         :Other Services
 BS  .IN        6.75           :Bit Size
 MST .      DP                 :Mean Surface Temperature
 TGRD.      NA                 :Temperature Gradiant
 MAGN.      4                  :Magnetic Declination
 MDEN.      2.71               :Density Matrix
 MATR.      LIMESTONE          :Neutron Matrix
 DTMT.      49                 :Delta T Matrix
 DTFL.                         :Delta T Fluid
 MUDS.      PIT                :Mud Sample Source
 MRS .      2.2                :Mud Resistivity
 MTP .      78                 :Mud Temperature
 MFRS.      1.66               :Resistivity Mud Filtrate
 MFTP.                         :Temperature Mud Filtrate
 MCRS.      3.3                :Resistivity Mud Cake
 MCTP.                         :Temperature Mud Cake
 FTYP.      FGM                :Fluid Type
 FD  .LB/G   9.1               :Mud Weight
 DFV .S                        :Fluid Viscosity
 FPH .                         :Fuild PH
 ELCO.      10000              :Electron Cutoff
 CASL.      8.62               :Casing Logger
 LOTD.      1250               :Logger TD
 ARTM.      21:15              :Arrival Time
 DPTM.      23:15              :Departure Time
 RIGN.      RIG 1              :Rig Number
~Other Information
#MNEM.UNIT  Information      Description
#---------- ---------------  ------------------------
# -------------------------- 
~A DEPTH  GAMMA    TEMP  POR(NEU) 1N    2N    CALIPER PHOTO EL POR(DEN) DEN(CDL) COMP  RES(MG)  SP    RES(MI)  RES(DI)  TENSION  
# ...
 406.000     83.6  71.5  26.8      0.1   0.3   2.0     3.6     10.5     2.53     0.196     6.8  244.2     4.2      3.9    267.4  
 406.200    128.9  71.5  21.9      0.1   0.3   2.0     3.0     18.9     2.39     0.081     6.9  244.2     4.1      3.8    270.6  
 406.400    162.1  71.5  31.6      0.1   0.3   2.0     2.7     15.8     2.44     0.111     6.5  243.3     4.0      3.8    273.7  
 406.600     97.5  71.5  26.1      0.1   0.3   2.0     3.1     18.8     2.39     0.097     6.3  242.6     4.0      3.8    278.1  
 406.800    101.0  71.5  35.4      0.1   0.3   2.0     2.7     22.0     2.33     0.085     6.2  243.6     3.9      3.8    281.0  
 407.000    160.3  71.5  21.1      0.1   0.3   2.0     3.2     18.4     2.40     0.140     6.0  243.7     3.9      3.8    278.1  
 407.200    125.4  71.5  25.3      0.1   0.2   2.0     3.3     20.4     2.36     0.164     6.0  244.0     3.8      3.8    277.3  
 407.400    146.4  71.5  27.1      0.1   0.2   2.0     3.2     16.5     2.43     0.234     6.0  243.8     3.8      3.9    272.4  
 407.600    128.9  71.5  30.9      0.1   0.2   2.0     2.6     30.5     2.19     0.104     6.0  243.4     3.7      3.9    268.7  
 407.800    151.6  71.5  36.6      0.1   0.2   2.0     2.8     36.1     2.09     0.094     6.0  242.7     3.7      3.9    269.1  
 408.000    146.4  71.5  41.2      0.1   0.2   2.0     2.9     33.9     2.13     0.197     5.8  241.2     3.7      3.9    267.6  
 408.200    115.0  71.5  37.4      0.1   0.2   2.0     2.1     36.2     2.09     0.234     5.8  240.0     3.7      4.0    269.7  
 408.400    101.0  71.5  40.7      0.1   0.2   2.0     2.0     46.6     1.91     0.149     5.2  238.5     3.7      4.0    274.8  
 408.600    115.0  71.5  35.7      0.1   0.2   2.0     2.2     41.8     1.99     0.226     5.3  238.0     3.8      4.0    277.5  
 408.800     99.3  71.5  33.7      0.1   0.1   2.0     1.7     42.7     1.98     0.203     5.2  238.0     4.0      4.0    279.6  
 409.000     87.0  71.5  33.6      0.1   0.1   2.0     2.3     39.8     2.03     0.203     5.3  238.0     4.1      4.0    277.4  
 409.200    108.0  71.5  32.0      0.1   0.1   2.0     1.9     39.8     2.03     0.151     5.2  238.3     4.2      4.0    275.6  
 409.400     73.1  71.5  19.9      0.1   0.2   2.0     2.4     38.5     2.05     0.161     5.4  238.5     4.3      4.0    271.4  
 409.600    104.5  71.5  23.8      0.1   0.2   2.0     2.3     36.5     2.09     0.177     6.0  239.3     4.3      4.0    269.1  
 409.800    142.9  71.5  28.1      0.1   0.2   2.0     2.1     26.0     2.27     0.276     6.8  239.3     4.3      4.0    269.2  
 410.000     78.3  71.5  27.5      0.1   0.2   2.0     1.7     34.7     2.12     0.144     7.2  240.2     4.2      4.0    268.7  
 410.200    111.5  71.5  26.4      0.1   0.2   2.0     1.3     46.4     1.92     -0.000     7.4  241.3     4.1      4.0    270.0  
 410.400     94.0  71.5  27.7      0.1   0.2   2.0     1.8     52.3     1.82     -0.003     7.0  241.5     4.0      4.1    272.4  
 410.600     80.1  71.5  31.2      0.1   0.2   2.0     1.7     48.6     1.88     0.132     6.8  242.5     3.9      4.1    277.1  
 410.800     83.6  71.5  32.5      0.1   0.2   2.0     0.9     52.7     1.81     0.160     6.3  242.5     3.9      4.1    278.4  
 411.000     73.1  71.5  38.2      0.1   0.2   2.0     1.2     58.0     1.72     0.106     5.7  243.0     3.9      4.1    276.5  
 411.200     94.0  71.6  47.2      0.1   0.1   2.0     1.3     60.6     1.67     0.064     5.3  243.0     3.9      4.1    274.4  
 411.400    120.2  71.5  40.0      0.1   0.1   2.0     1.2     60.1     1.68     0.077     5.0  243.6     3.9      4.1    268.8  
 411.600    108.0  71.5  34.8      0.1   0.1   2.0     1.1     54.4     1.78     0.148     5.0  244.4     3.9      4.1    267.0  
 411.800     78.3  71.5  34.8      0.1   0.1   2.0     1.6     44.5     1.95     0.172     5.1  245.5     3.9      4.1    267.1  
 412.000     46.9  71.5  33.1      0.1   0.1   2.0     1.8     49.4     1.86     0.072     4.8  245.4     4.0      4.0    266.9  
 412.200     99.3  71.5  42.5      0.1   0.1   2.0     1.8     50.2     1.85     0.066     5.0  245.8     4.0      4.0    268.2  
 412.400     52.1  71.6  35.7      0.1   0.1   2.0     2.2     44.8     1.94     0.191     5.3  246.0     4.0      4.0    270.3  
 412.600     83.6  71.5  31.1      0.1   0.1   2.0     1.6     48.0     1.89     0.193     5.2  246.1     3.9      3.9    276.5  
 412.800     83.6  71.6  43.3      0.1   0.1   2.0     1.8     51.1     1.84     0.174     5.3  246.5     3.9      3.9    278.7  
 413.000     46.9  71.5  33.4      0.1   0.1   2.0     2.2     46.4     1.92     0.202     5.3  246.6     3.9      3.9    277.7  
 413.200     46.9  71.6  37.4      0.1   0.1   2.0     2.4     49.0     1.87     0.147     5.3  246.8     4.0      3.9    276.2  
 413.400     83.6  71.6  27.4      0.1   0.1   2.0     2.4     52.1     1.82     0.127     5.2  246.7     4.0      3.9    270.1  
 413.600     78.3  71.5  31.6      0.1   0.1   2.0     2.2     57.3     1.73     0.142     4.8  246.2     4.1      3.9    266.7  
 413.800     73.1  71.6  42.1      0.1   0.1   2.0     1.7     65.3     1.59     0.117     5.2  246.1     4.1      4.0    267.2  
 414.000     73.1  71.5  38.2      0.1   0.1   2.0     1.5     63.8     1.62     0.128     5.3  246.3     4.1      4.0    267.2  
 414.200     73.1  71.5  39.1      0.1   0.1   2.0     1.4     56.0     1.75     0.108     5.4  246.4     4.1      4.0    269.0  
 414.400     41.7  71.5  49.3      0.1   0.1   2.0     1.8     56.2     1.75     -0.000     5.3  246.7     4.1      4.1    270.6  
 414.600     67.9  71.6  31.2      0.1   0.1   2.0     2.5     53.8     1.79     -0.015     5.3  246.8     4.1      4.2    274.5  
 414.800     67.9  71.6  38.8      0.1   0.1   2.0     2.9     45.5     1.93     0.137     5.3  246.4     4.2      4.3    278.2  
 415.000     46.9  71.5  39.5      0.1   0.1   2.0     1.9     48.3     1.88     0.235     5.3  245.8     4.2      4.3    277.7  
 415.200     20.7  71.6  36.4      0.1   0.2   2.0     1.6     45.5     1.93     0.234     5.2  245.6     4.3      4.4    277.4  
 415.400     99.3  71.5  33.9      0.1   0.1   2.0     1.6     42.3     1.99     0.108     5.3  245.6     4.4      4.5    272.8  
 415.600     52.1  71.5  27.6      0.1   0.1   2.0     2.1     34.8     2.11     0.022     5.5  245.4     4.4      4.5    268.7  
 415.800     15.5  71.6  33.7      0.1   0.2   2.0     3.1     27.4     2.24     0.001     5.3  245.3     4.6      4.5    267.8  
 416.000    115.0  71.6  23.7      0.1   0.2   2.0     3.3     17.3     2.41     0.046     5.2  245.0     4.7      4.6    267.0  
 416.200    104.5  71.6  22.3      0.1   0.2   2.0     3.5     12.0     2.51     0.090     5.2  244.6     4.8      4.6    268.6  
 416.400     67.9  71.6  30.5      0.1   0.2   2.0     3.4      7.9     2.57     0.121     5.5  244.1     4.9      4.6    271.5  
 416.600     99.3  71.5  26.5      0.1   0.2   2.0     3.0      4.6     2.63     0.148     5.7  242.9     5.0      4.6    275.1  
 416.800    115.0  71.6  25.4      0.1   0.2   2.0     2.8     12.4     2.50     0.085     6.3  242.2     5.0      4.7    278.3  
 417.000     83.6  71.6  25.9      0.1   0.3   2.0     3.2     15.4     2.45     0.098     6.7  242.7     5.0      4.8    278.6  
 417.200    109.7  71.6  18.6      0.2   0.3   2.0     3.0     17.8     2.41     0.054     7.2  242.6     5.0      4.8    276.7  
 417.400    130.7  71.6  18.4      0.2   0.3   2.0     3.6     13.9     2.47     0.104     7.5  242.2     4.9      4.8    272.5  
 417.600    135.9  71.5  23.0      0.2   0.3   2.0     3.4     12.7     2.49     0.131     7.7  242.0     4.9      4.9    270.0  
 417.800     83.6  71.6  23.9      0.2   0.3   2.0     4.0     10.5     2.53     0.164     7.3  241.3     4.9      4.9    270.0  
 418.000    104.5  71.6  22.1      0.2   0.3   2.0     3.3      9.5     2.55     0.170     7.1  241.2     4.9      5.0    269.6  
 418.200    135.9  71.6  19.3      0.2   0.3   2.0     3.2     13.4     2.48     0.142     7.0  241.7     5.0      5.0    270.7  
