~Version Information
 VERS.                2.0:  CWLS LOG ASCII STANDARD -VERSION 2.0
 WRAP.                 NO:  ONE LINE PER DEPTH STEP
~WELL INFORMATION BLOCK
#MNEM.UNIT       DATA              DESCRIPTION OF MNEMONIC
#---------    -------------            ------------------------
 STRT.FT  97.400                         :START DEPTH
 STOP.FT  1255.400                       :STOP DEPTH
 STEP.FT  0.200                          :STEP    UP_HOLE  
 NULL.    -999.25                        :NULL VALUE
 COMP.    BANNER OIL & GAS LLC           :COMPANY
 WELL.    MARY GREEN 41                                                :WELL
 FLD .     REGULAR                       :FIELD\LOCATION
 LOC .          N/A   N/A                :LOCATION
 CNTY.    ARCHER                         :COUNTY
 STAT.    TEXAS                          :STATE
 CTRY.    USA                            :COUNTRY
 SRVC.    45                             :SERVICE COMPANY
 DATE.    07/31/2015                     :LOG DATE
 API .   42-009-42911                        :API NUMBER
 LIC .    N/A                            :LICENSE NUMBER
~Curve Information Block
#MNEM.UNIT      API CODE     Curve Description
#---------    -------------  ------------------------
 DEPT     .FT        00 001 00 00          :  1  DEPTH   
 GAMMA    .API-GR    00 310 00 00          :  2  GAMMA RAY           
 TEMP     .DEG F     00 660 00 00          :  3  TEMPERATURE         
 POR(NEU) .PERCENT   00 330 00 00          :  4  NEUTRON POROSITY    
 1N       .OHM-M     00 000 00 00          :  5  1N                  
 2N       .OHM-M     00 000 00 00          :  6  2N                  
 CALIPER  .INCH      00 280 00 00          :  7  SHORT ARM CALIPER   
 PHOTO EL .BARNS/E   00 000 00 00          :  8  PHOTO EL            
 POR(DEN) .PERCENT   00 890 00 00          :  9  DENSITY POROSITY    
 DEN(CDL) .G/CC      00 350 00 00          : 10  COMPENSATED DENSITY 
 COMP     .G/CC      00 356 00 00          : 11  DEN COMPENSATION    
 RES(MG)  .OHM-M     00 220 00 00          : 12  MEDIUM GUARD RES    
 SP       .MV        00 010 00 00          : 13  SPON POTENTIAL      
 RES(MI)  .OHM-M     00 120 00 00          : 14  MED INDUCTION RES   
 RES(DI)  .OHM-M     00 120 00 00          : 15  DEEP INDUCTION RES  
 TENSION  .CPS       00 000 00 00          : 16  LINE TENSION        
~Parameter Information Block
#MNEM.UNIT   Information     Description
#---------- ---------------  ------------------------
 FILE.      PROCESSED          :File Type
 FIID.      4000               :File Type Identifier
 VERS.      4.00T              :System Version
 SER .      1                  :System Serial Number
 TRUK.      .67455             :Truck Calibration Number
 TOOL.        2487             :Tool Serial Number
 TIME.      1042               :Time    HrHrMinMin
 LAT .      N/A                :Latitude
 LON .      N/A                :Longitude
 LMF .      K.B.               :Log Measured From
 DMF .      K.B.               :Driller Measured From
 PD  .      G.L.               :Permanent Data
 PDEV.                         :Elevation Permanent Data
 EKB .M                        :Elevation Kelly Bushing
 ELEV.DF                       :Elevation DF
 EGL .M                        :Elevation Ground Level
 DRDP.      1260               :Driller's Depth
 CASD.                         :Casing Diameter
 CASB.      0                  :Casing Bottom
 CASX.      STEEL              :Casing Type
 CAST.      NA                 :Casing Thickness
 TNOC.      20:00              :Time Circulation Stopped
 LOGU.      806                :Logging Unit
 RECB.      J FRANKLIN         :Recorded By
 OSR1.      DIL DEN            :Other Services
 OSR2.      NEUT ML            :Other Services
 OSR3.                         :Other Services
 BS  .IN        6.75           :Bit Size
 MST .      DP                 :Mean Surface Temperature
 TGRD.      NA                 :Temperature Gradiant
 MAGN.      4                  :Magnetic Declination
 MDEN.      2.71               :Density Matrix
 MATR.      LIMESTONE          :Neutron Matrix
 DTMT.      49                 :Delta T Matrix
 DTFL.                         :Delta T Fluid
 MUDS.      PIT                :Mud Sample Source
 MRS .      2.2                :Mud Resistivity
 MTP .      78                 :Mud Temperature
 MFRS.      1.66               :Resistivity Mud Filtrate
 MFTP.                         :Temperature Mud Filtrate
 MCRS.      3.3                :Resistivity Mud Cake
 MCTP.                         :Temperature Mud Cake
 FTYP.      FGM                :Fluid Type
 FD  .LB/G   9.1               :Mud Weight
 DFV .S                        :Fluid Viscosity
 FPH .                         :Fuild PH
 ELCO.      10000              :Electron Cutoff
 CASL.      8.62               :Casing Logger
 LOTD.      1250               :Logger TD
 ARTM.      21:15              :Arrival Time
 DPTM.      23:15              :Departure Time
 RIGN.      RIG 1              :Rig Number
~Other Information
#MNEM.UNIT  Information      Description
#---------- ---------------  ------------------------
# -------------------------- 
~A DEPTH  GAMMA    TEMP  POR(NEU) 1N    2N    CALIPER PHOTO EL POR(DEN) DEN(CDL) COMP  RES(MG)  SP    RES(MI)  RES(DI)  TENSION  
# ...
 331.600     97.5  71.2  29.2      0.1   0.3   2.0     3.4     15.2     2.45     0.043     6.8  115.7     5.2      5.2    267.9  
 331.800     99.3  71.2  25.9      0.1   0.3   2.0     3.7     10.2     2.53     0.086     6.9  131.2     5.2      5.2    271.0  
 332.000    128.9  71.1  21.5      0.1   0.3   2.0     3.3     10.9     2.52     0.055     6.8  167.2     5.3      5.2    271.8  
 332.200    115.0  71.2  20.0      0.1   0.3   2.0     2.8      5.6     2.61     0.092     6.9  146.7     5.4      5.2    269.8  
 332.400     66.1  71.2  20.8      0.1   0.3   2.0     3.8      3.1     2.66     0.110     6.8  162.3     5.5      5.2    267.3  
 332.600     57.4  71.2  19.6      0.1   0.3   2.0     3.2      9.4     2.55     0.045     6.8  167.3     5.5      5.2    262.9  
 332.800     88.8  71.2  21.8      0.1   0.2   2.0     3.7      7.7     2.58     0.077     6.9  162.5     5.6      5.2    261.1  
 333.000     62.6  71.2  20.9      0.1   0.2   2.0     3.9      6.7     2.60     0.093     7.5  134.9     5.5      5.2    263.0  
 333.200     46.9  71.2  22.3      0.1   0.3   2.0     3.1     11.5     2.51     0.054     7.7  147.1     5.5      5.2    263.6  
 333.400     69.6  71.2  19.9      0.2   0.3   2.0     3.7      8.0     2.57     0.091     8.5  141.0     5.4      5.2    267.6  
 333.600    104.5  71.2  24.6      0.2   0.3   2.0     3.2      6.4     2.60     0.084     8.4  141.2     5.3      5.2    270.0  
 333.800     66.1  71.1  16.1      0.2   0.3   2.0     3.5     11.1     2.52     0.060     8.3  156.0     5.2      5.2    272.5  
 334.000     83.6  71.2  19.4      0.2   0.3   2.0     3.5     15.1     2.45     0.036     8.1  131.4     5.1      5.2    274.3  
 334.200     94.0  71.2  17.9      0.2   0.3   2.0     3.4     11.3     2.52     0.054     7.8  115.4     5.1      5.2    270.0  
 334.400    130.7  71.1  23.3      0.2   0.3   2.0     3.2     10.9     2.52     0.063     7.3  107.3     5.1      5.2    268.2  
 334.600     83.6  71.2  29.1      0.2   0.3   2.0     3.6     11.3     2.52     0.071     6.8  112.0     5.1      5.1    264.0  
 334.800    120.2  71.2  24.4      0.2   0.3   2.0     3.4     11.5     2.51     0.066     6.8  119.5     5.1      5.0    261.6  
 335.000    115.0  71.2  20.8      0.1   0.3   2.0     2.7     13.6     2.48     0.045     6.5  112.9     5.1      4.9    262.3  
 335.200    109.7  71.2  21.0      0.1   0.3   2.0     3.2      9.8     2.54     0.077     6.7  132.4     5.0      4.8    262.6  
 335.400     87.0  71.2  21.6      0.2   0.3   2.0     3.2      8.5     2.57     0.103     6.8  114.1     5.0      4.8    265.0  
 335.600    115.0  71.2  23.2      0.2   0.3   2.0     3.1     11.8     2.51     0.075     6.8  117.6     5.0      4.7    267.3  
 335.800     73.1  71.2  17.1      0.2   0.3   2.0     3.0     14.5     2.46     0.045     6.9  116.3     5.0      4.6    269.8  
 336.000     83.6  71.2  16.7      0.2   0.3   2.0     3.5     14.2     2.47     0.055     7.2  108.8     4.9      4.6    270.7  
 336.200    104.5  71.2  20.0      0.2   0.3   2.0     4.1      9.7     2.54     0.085     7.3  108.2     4.8      4.5    268.4  
 336.400    146.4  71.2  20.2      0.2   0.3   2.0     3.6      9.6     2.55     0.078     7.5  107.2     4.7      4.5    265.7  
 336.600    115.0  71.2  25.0      0.2   0.3   2.0     3.6      8.8     2.56     0.098     7.4  108.5     4.7      4.4    261.8  
 336.800    156.8  71.2  20.5      0.1   0.3   2.0     3.5     11.6     2.51     0.082     7.3  108.4     4.6      4.4    259.9  
 337.000    142.9  71.2  27.7      0.1   0.2   2.0     3.9     10.9     2.52     0.085     7.0  110.2     4.5      4.3    260.7  
 337.200    135.9  71.2  24.2      0.1   0.3   2.0     3.3     14.3     2.46     0.043     7.0  110.4     4.5      4.3    261.8  
 337.400     83.6  71.2  20.7      0.1   0.2   2.0     3.5     11.8     2.51     0.074     6.5  112.7     4.5      4.3    264.5  
 337.600    104.5  71.2  23.1      0.1   0.2   2.0     3.2     12.7     2.49     0.065     6.5  141.5     4.5      4.2    265.8  
 337.800    132.4  71.2  23.4      0.1   0.2   2.0     3.4     10.4     2.53     0.093     6.4  111.8     4.4      4.2    270.3  
 338.000    115.0  71.2  23.0      0.1   0.2   2.0     3.3     11.3     2.52     0.080     6.7  135.4     4.3      4.2    271.6  
 338.200    142.9  71.2  21.5      0.1   0.3   2.0     4.0     13.1     2.49     0.065     6.7  158.5     4.3      4.1    269.4  
 338.400     73.1  71.2  27.1      0.1   0.3   2.0     3.3     12.0     2.50     0.072     6.5  136.6     4.2      4.1    267.8  
 338.600    111.5  71.2  26.2      0.1   0.2   2.0     3.7     12.6     2.49     0.069     6.5  123.6     4.2      4.1    262.7  
 338.800     99.3  71.2  27.9      0.1   0.2   2.0     3.6      9.2     2.55     0.102     6.5  148.3     4.2      4.1    260.9  
 339.000    118.4  71.2  21.9      0.1   0.2   2.0     3.2     14.3     2.46     0.048     6.2  159.0     4.2      4.1    261.0  
 339.200    109.7  71.2  26.6      0.1   0.2   2.0     3.3     14.8     2.46     0.036     6.1  155.9     4.2      4.2    261.5  
 339.400    128.9  71.2  24.2      0.1   0.2   2.0     3.3     11.5     2.51     0.090     6.2  115.8     4.2      4.2    264.7  
 339.600     78.3  71.2  26.0      0.1   0.2   2.0     3.1     11.8     2.51     0.074     6.3  110.4     4.2      4.2    268.3  
 339.800    111.5  71.2  19.7      0.1   0.2   2.0     3.5     13.9     2.47     0.061     6.3  110.4     4.2      4.2    272.0  
 340.000     94.0  71.2  24.3      0.1   0.2   2.0     3.5     12.0     2.50     0.073     6.2  110.4     4.3      4.3    274.6  
 340.200    132.4  71.2  27.4      0.1   0.2   2.0     3.6     10.3     2.53     0.081     6.2  110.6     4.3      4.3    272.4  
 340.400     99.3  71.2  21.1      0.1   0.2   2.0     3.1      8.8     2.56     0.098     6.3  112.9     4.4      4.3    269.7  
 340.600     83.6  71.2  20.6      0.1   0.2   2.0     2.8      9.7     2.54     0.096     6.3  110.7     4.5      4.4    266.1  
 340.800     94.0  71.2  18.3      0.1   0.2   2.0     2.9      8.2     2.57     0.090     6.2  110.6     4.5      4.4    263.3  
 341.000    132.4  71.2  18.0      0.1   0.2   2.0     3.2      8.2     2.57     0.098     6.3  111.1     4.6      4.4    263.8  
 341.200    177.8  71.2  21.4      0.1   0.2   2.0     2.9      6.5     2.60     0.092     6.9  110.5     4.7      4.5    263.7  
 341.400     90.5  71.2  21.2      0.1   0.3   2.0     3.1     13.3     2.48     0.057     7.2  149.7     4.7      4.5    265.1  
 341.600     94.0  71.2  16.3      0.1   0.3   2.0     3.0      9.9     2.54     0.067     7.4  141.3     4.7      4.6    269.1  
 341.800     83.6  71.2  19.8      0.1   0.3   2.0     3.3      8.5     2.56     0.080     7.5  155.4     4.7      4.6    271.1  
 342.000     78.3  71.2  20.9      0.1   0.3   2.0     2.5      3.0     2.66     0.124     7.6  153.1     4.7      4.7    274.4  
 342.200    139.4  71.2  24.7      0.1   0.3   2.0     3.0     14.5     2.46     0.039     7.7  145.8     4.7      4.8    274.0  
 342.400     83.6  71.2  23.7      0.2   0.3   2.0     2.9     17.4     2.41     0.014     7.2  134.6     4.7      4.8    272.1  
 342.600    125.4  71.2  25.9      0.1   0.3   2.0     3.2     16.3     2.43     0.032     7.0  127.6     4.8      4.8    269.8  
 342.800    104.5  71.2  16.7      0.1   0.3   2.0     3.7      8.7     2.56     0.094     7.0  160.1     4.8      4.9    266.1  
 343.000    139.4  71.2  28.3      0.1   0.3   2.0     3.8      9.5     2.55     0.071     7.0  155.4     4.9      4.9    265.8  
 343.200    162.1  71.2  19.4      0.1   0.3   2.0     3.7     14.8     2.46     0.038     6.8  161.0     4.9      4.9    265.7  
 343.400    125.4  71.2  21.0      0.1   0.3   2.0     3.6      5.4     2.62     0.109     6.5  186.8     4.9      4.9    266.4  
 343.600    135.9  71.2  23.2      0.1   0.3   2.0     3.7      7.9     2.57     0.094     6.5  144.3     5.0      4.9    269.9  
 343.800    125.4  71.2  18.4      0.2   0.3   2.0     3.8      8.1     2.57     0.094     6.8  119.4     5.0      4.9    273.3  
