~Version Information
 VERS.                2.0:  CWLS LOG ASCII STANDARD -VERSION 2.0
 WRAP.                 NO:  ONE LINE PER DEPTH STEP
~WELL INFORMATION BLOCK
#MNEM.UNIT       DATA              DESCRIPTION OF MNEMONIC
#---------    -------------            ------------------------
 STRT.FT  97.400                         :START DEPTH
 STOP.FT  1255.400                       :STOP DEPTH
 STEP.FT  0.200                          :STEP    UP_HOLE  
 NULL.    -999.25                        :NULL VALUE
 COMP.    BANNER OIL & GAS LLC           :COMPANY
 WELL.    MARY GREEN 41                                                :WELL
 FLD .     REGULAR                       :FIELD\LOCATION
 LOC .          N/A   N/A                :LOCATION
 CNTY.    ARCHER                         :COUNTY
 STAT.    TEXAS                          :STATE
 CTRY.    USA                            :COUNTRY
 SRVC.    45                             :SERVICE COMPANY
 DATE.    07/31/2015                     :LOG DATE
 API .   42-009-42911                        :API NUMBER
 LIC .    N/A                            :LICENSE NUMBER
~Curve Information Block
#MNEM.UNIT      API CODE     Curve Description
#---------    -------------  ------------------------
 DEPT     .FT        00 001 00 00          :  1  DEPTH   
 GAMMA    .API-GR    00 310 00 00          :  2  GAMMA RAY           
 TEMP     .DEG F     00 660 00 00          :  3  TEMPERATURE         
 POR(NEU) .PERCENT   00 330 00 00          :  4  NEUTRON POROSITY    
 1N       .OHM-M     00 000 00 00          :  5  1N                  
 2N       .OHM-M     00 000 00 00          :  6  2N                  
 CALIPER  .INCH      00 280 00 00          :  7  SHORT ARM CALIPER   
 PHOTO EL .BARNS/E   00 000 00 00          :  8  PHOTO EL            
 POR(DEN) .PERCENT   00 890 00 00          :  9  DENSITY POROSITY    
 DEN(CDL) .G/CC      00 350 00 00          : 10  COMPENSATED DENSITY 
 COMP     .G/CC      00 356 00 00          : 11  DEN COMPENSATION    
 RES(MG)  .OHM-M     00 220 00 00          : 12  MEDIUM GUARD RES    
 SP       .MV        00 010 00 00          : 13  SPON POTENTIAL      
 RES(MI)  .OHM-M     00 120 00 00          : 14  MED INDUCTION RES   
 RES(DI)  .OHM-M     00 120 00 00          : 15  DEEP INDUCTION RES  
 TENSION  .CPS       00 000 00 00          : 16  LINE TENSION        
~Parameter Information Block
#MNEM.UNIT   Information     Description
#---------- ---------------  ------------------------
 FILE.      PROCESSED          :File Type
 FIID.      4000               :File Type Identifier
 VERS.      4.00T              :System Version
 SER .      1                  :System Serial Number
 TRUK.      .67455             :Truck Calibration Number
 TOOL.        2487             :Tool Serial Number
 TIME.      1042               :Time    HrHrMinMin
 LAT .      N/A                :Latitude
 LON .      N/A                :Longitude
 LMF .      K.B.               :Log Measured From
 DMF .      K.B.               :Driller Measured From
 PD  .      G.L.               :Permanent Data
 PDEV.                         :Elevation Permanent Data
 EKB .M                        :Elevation Kelly Bushing
 ELEV.DF                       :Elevation DF
 EGL .M                        :Elevation Ground Level
 DRDP.      1260               :Driller's Depth
 CASD.                         :Casing Diameter
 CASB.      0                  :Casing Bottom
 CASX.      STEEL              :Casing Type
 CAST.      NA                 :Casing Thickness
 TNOC.      20:00              :Time Circulation Stopped
 LOGU.      806                :Logging Unit
 RECB.      J FRANKLIN         :Recorded By
 OSR1.      DIL DEN            :Other Services
 OSR2.      NEUT ML            :Other Services
 OSR3.                         :Other Services
 BS  .IN        6.75           :Bit Size
 MST .      DP                 :Mean Surface Temperature
 TGRD.      NA                 :Temperature Gradiant
 MAGN.      4                  :Magnetic Declination
 MDEN.      2.71               :Density Matrix
 MATR.      LIMESTONE          :Neutron Matrix
 DTMT.      49                 :Delta T Matrix
 DTFL.                         :Delta T Fluid
 MUDS.      PIT                :Mud Sample Source
 MRS .      2.2                :Mud Resistivity
 MTP .      78                 :Mud Temperature
 MFRS.      1.66               :Resistivity Mud Filtrate
 MFTP.                         :Temperature Mud Filtrate
 MCRS.      3.3                :Resistivity Mud Cake
 MCTP.                         :Temperature Mud Cake
 FTYP.      FGM                :Fluid Type
 FD  .LB/G   9.1               :Mud Weight
 DFV .S                        :Fluid Viscosity
 FPH .                         :Fuild PH
 ELCO.      10000              :Electron Cutoff
 CASL.      8.62               :Casing Logger
 LOTD.      1250               :Logger TD
 ARTM.      21:15              :Arrival Time
 DPTM.      23:15              :Departure Time
 RIGN.      RIG 1              :Rig Number
~Other Information
#MNEM.UNIT  Information      Description
#---------- ---------------  ------------------------
# -------------------------- 
~A DEPTH  GAMMA    TEMP  POR(NEU) 1N    2N    CALIPER PHOTO EL POR(DEN) DEN(CDL) COMP  RES(MG)  SP    RES(MI)  RES(DI)  TENSION  
# ...
 170.400     55.6  70.2  18.3      0.2   0.4   2.0     2.4     18.5     2.39     0.142     9.0  104.8     6.8      6.9    250.2  
 170.600     88.8  70.2  18.9      0.2   0.4   2.0     2.5     21.3     2.34     0.101     9.3  113.1     6.8      6.9    247.2  
 170.800    104.5  70.2  12.6      0.2   0.4   2.0     2.1     16.7     2.42     0.145     9.2  149.3     6.9      7.0    245.8  
 171.000     88.8  70.2  16.9      0.2   0.4   2.0     1.8     22.3     2.33     0.082     9.0  118.0     7.0      7.0    245.5  
 171.200     90.5  70.2  18.2      0.2   0.4   2.0     2.0     22.0     2.33     0.061     9.0  115.3     7.2      7.0    246.5  
 171.400     73.1  70.2  12.5      0.2   0.4   2.0     2.4     14.2     2.47     0.119     9.0  121.4     7.4      7.0    247.7  
 171.600     48.7  70.2  12.2      0.2   0.4   2.0     1.8     20.6     2.36     0.042     9.0  130.2     7.6      7.0    249.4  
 171.800     88.8  70.2  14.0      0.2   0.4   2.0     2.0     19.2     2.38     0.073     9.5  161.4     7.7      7.0    253.3  
 172.000     73.1  70.2   9.3      0.2   0.5   2.0     3.1     16.0     2.44     0.112     9.9  153.9     7.8      7.0    253.7  
 172.200     78.3  70.2  11.3      0.2   0.5   2.0     2.7     23.7     2.30     0.071    11.2  137.8     7.7      7.0    251.4  
 172.400     66.1  70.2  11.6      0.2   0.5   2.0     2.0     20.6     2.36     0.138    12.7  155.4     7.5      7.0    248.3  
 172.600     62.6  70.2  11.6      0.3   0.5   2.0     1.9     20.5     2.36     0.144    13.7  115.5     7.3      6.9    244.6  
 172.800     27.7  70.2  12.2      0.3   0.5   2.0     1.5     19.2     2.38     0.156    13.1  125.1     7.1      6.8    243.2  
 173.000     36.4  70.2  12.5      0.2   0.5   2.0     1.8     22.2     2.33     0.134    12.0  148.0     7.0      6.8    243.4  
 173.200     45.2  70.2  14.4      0.2   0.4   2.0     2.0     23.0     2.32     0.134    11.6  167.1     7.0      6.8    244.7  
 173.400     31.2  70.2  12.6      0.2   0.4   2.0     1.8     25.3     2.28     0.101    10.5  154.0     6.9      6.8    246.1  
 173.600     66.1  70.2  11.3      0.2   0.4   2.0     2.0     29.1     2.21     0.095     9.8  169.3     6.8      6.8    248.3  
 173.800     41.7  70.2  15.7      0.2   0.4   2.0     2.2     20.9     2.35     0.195     9.0  161.7     6.7      6.7    251.8  
 174.000     62.6  70.2  15.3      0.2   0.4   2.0     2.1     19.2     2.38     0.236     9.1  167.3     6.6      6.6    252.8  
 174.200     62.6  70.2  16.8      0.2   0.4   2.0     2.4     23.6     2.31     0.174     8.8  157.4     6.5      6.5    251.5  
 174.400     73.1  70.2  16.6      0.2   0.4   2.0     2.2     28.9     2.22     0.106     8.6  153.6     6.4      6.5    249.0  
 174.600     88.8  70.2  17.7      0.2   0.4   2.0     2.4     24.1     2.30     0.132     8.2  133.6     6.5      6.4    245.1  
 174.800    101.0  70.2  16.3      0.2   0.4   2.0     2.6     20.3     2.36     0.166     7.7  142.8     6.6      6.3    243.0  
 175.000     88.8  70.2  17.4      0.2   0.4   2.0     2.0     22.3     2.33     0.135     7.5  123.5     6.7      6.3    242.6  
 175.200    101.0  70.2  19.9      0.2   0.4   2.0     2.5     18.0     2.40     0.180     7.8  151.4     6.7      6.2    243.1  
 175.400     99.3  70.2  17.6      0.2   0.4   2.0     2.2     22.5     2.33     0.137     8.0  125.0     6.6      6.2    243.4  
 175.600     59.1  70.2  14.7      0.2   0.4   2.0     2.1     17.9     2.40     0.156     8.6  125.1     6.5      6.1    247.1  
 175.800     62.6  70.2  13.9      0.2   0.5   2.0     2.0     22.6     2.32     0.133     9.2  113.5     6.4      6.1    251.5  
 176.000     31.2  70.2  14.4      0.2   0.5   2.0     2.1     10.3     2.53     0.256     8.8  142.9     6.3      6.1    253.6  
 176.200     67.9  70.2  15.0      0.2   0.5   2.0     2.2     15.5     2.44     0.212     8.9  128.4     6.2      6.1    253.9  
 176.400     80.1  70.2  17.1      0.2   0.5   2.0     2.6     17.2     2.42     0.203     8.7  162.4     6.2      6.2    250.3  
 176.600     57.4  70.2  18.8      0.2   0.4   2.0     2.4     19.0     2.38     0.143     8.4  147.4     6.1      6.2    247.5  
 176.800    108.0  70.2  22.6      0.2   0.4   2.0     2.4     20.3     2.36     0.108     8.2  126.4     6.2      6.2    244.3  
 177.000     94.0  70.2  18.8      0.2   0.4   2.0     2.9     17.9     2.40     0.114     8.0  132.2     6.3      6.2    242.9  
 177.200     80.1  70.2  17.3      0.2   0.4   2.0     2.5     16.4     2.43     0.120     8.0  128.6     6.4      6.2    245.0  
 177.400     73.1  70.2  22.2      0.2   0.4   2.0     2.2     15.0     2.45     0.119     7.8  154.0     6.4      6.2    246.6  
 177.600     55.6  70.2  21.1      0.2   0.4   2.0     2.3     20.6     2.36     0.075     8.0  124.2     6.5      6.2    250.7  
 177.800     88.8  70.2  20.5      0.2   0.4   2.0     2.4     16.1     2.43     0.100     8.2  114.1     6.4      6.2    254.1  
 178.000     83.6  70.2  18.5      0.2   0.5   2.0     2.4     18.9     2.39     0.082     8.7  120.6     6.4      6.2    256.9  
 178.200     83.6  70.2  22.3      0.2   0.5   2.0     3.0     15.8     2.44     0.118     8.8  113.4     6.3      6.3    256.5  
 178.400    104.5  70.2  17.2      0.2   0.5   2.0     2.7     16.5     2.43     0.111     8.7  111.0     6.3      6.2    251.5  
 178.600     80.1  70.2  15.0      0.2   0.4   2.0     2.9     10.9     2.52     0.161     8.7  112.0     6.3      6.2    249.0  
 178.800     62.6  70.2  20.2      0.2   0.4   2.0     3.1      8.2     2.57     0.171     8.5  122.8     6.2      6.2    245.1  
 179.000    118.4  70.2  19.0      0.2   0.4   2.0     2.6     19.6     2.38     0.066     8.3  118.7     6.2      6.2    243.6  
 179.200     67.9  70.2  20.3      0.2   0.4   2.0     2.9     17.6     2.41     0.089     8.3  116.5     6.2      6.1    244.9  
 179.400    101.0  70.2  22.1      0.2   0.4   2.0     3.5     15.7     2.44     0.127     8.3  111.5     6.2      6.1    246.2  
 179.600    120.2  70.2  16.9      0.2   0.4   2.0     2.6     17.5     2.41     0.141     8.2  110.4     6.2      6.0    251.2  
 179.800     94.0  70.2  18.9      0.2   0.4   2.0     3.2     13.0     2.49     0.215     8.2  121.2     6.1      6.0    254.5  
 180.000     78.3  70.2  22.8      0.2   0.4   2.0     2.6     16.0     2.44     0.184     8.0  115.8     6.1      6.0    258.7  
 180.200     83.6  70.2  23.7      0.2   0.4   2.0     2.6     21.2     2.35     0.119     8.0  110.4     6.0      5.9    258.5  
 180.400     94.0  70.2  22.9      0.2   0.4   2.0     2.8     19.1     2.38     0.111     7.8  131.9     6.0      5.9    253.7  
 180.600     97.5  70.2  26.2      0.2   0.4   2.0     3.3     16.7     2.42     0.100     7.7  196.6     6.0      5.9    251.1  
 180.800     73.1  70.2  21.4      0.2   0.4   2.0     2.9     20.8     2.35     0.051     7.7  201.2     6.1      5.9    246.4  
 181.000     52.1  70.2  21.3      0.2   0.4   2.0     3.7     13.9     2.47     0.110     7.4  201.4     6.0      5.9    244.7  
 181.200    120.2  70.2  22.1      0.2   0.3   2.0     2.9     20.9     2.35     0.033     7.7  201.3     6.0      5.8    245.5  
 181.400     83.6  70.3  23.5      0.2   0.3   2.0     3.5     18.1     2.40     0.090     7.6  200.8     5.9      5.8    245.6  
 181.600    120.2  70.3  26.6      0.2   0.3   2.0     3.2     22.1     2.33     0.119     7.7  201.3     5.9      5.8    249.7  
 181.800    135.9  70.3  18.4      0.2   0.4   2.0     3.2     14.7     2.46     0.221     7.7  199.3     5.8      5.8    253.0  
 182.000     83.6  70.2  25.6      0.2   0.4   2.0     2.9     19.4     2.38     0.203     7.8  183.1     5.7      5.8    257.2  
 182.200     94.0  70.3  17.7      0.2   0.3   2.0     2.3     17.8     2.41     0.194     7.6  198.3     5.7      5.7    258.8  
 182.400     94.0  70.2  26.8      0.2   0.3   2.0     1.8     17.0     2.42     0.155     7.3  201.6     5.7      5.7    254.3  
 182.600     90.5  70.2  17.0      0.1   0.3   2.0     2.0     19.2     2.38     0.088     6.9  202.2     5.7      5.7    251.3  
