~Version Information
 VERS.                2.0:  CWLS LOG ASCII STANDARD -VERSION 2.0
 WRAP.                 NO:  ONE LINE PER DEPTH STEP
~WELL INFORMATION BLOCK
#MNEM.UNIT       DATA              DESCRIPTION OF MNEMONIC
#---------    -------------            ------------------------
 STRT.FT  97.400                         :START DEPTH
 STOP.FT  1255.400                       :STOP DEPTH
 STEP.FT  0.200                          :STEP    UP_HOLE  
 NULL.    -999.25                        :NULL VALUE
 COMP.    BANNER OIL & GAS LLC           :COMPANY
 WELL.    MARY GREEN 41                                                :WELL
 FLD .     REGULAR                       :FIELD\LOCATION
 LOC .          N/A   N/A                :LOCATION
 CNTY.    ARCHER                         :COUNTY
 STAT.    TEXAS                          :STATE
 CTRY.    USA                            :COUNTRY
 SRVC.    45                             :SERVICE COMPANY
 DATE.    07/31/2015                     :LOG DATE
 API .   42-009-42911                        :API NUMBER
 LIC .    N/A                            :LICENSE NUMBER
~Curve Information Block
#MNEM.UNIT      API CODE     Curve Description
#---------    -------------  ------------------------
 DEPT     .FT        00 001 00 00          :  1  DEPTH   
 GAMMA    .API-GR    00 310 00 00          :  2  GAMMA RAY           
 TEMP     .DEG F     00 660 00 00          :  3  TEMPERATURE         
 POR(NEU) .PERCENT   00 330 00 00          :  4  NEUTRON POROSITY    
 1N       .OHM-M     00 000 00 00          :  5  1N                  
 2N       .OHM-M     00 000 00 00          :  6  2N                  
 CALIPER  .INCH      00 280 00 00          :  7  SHORT ARM CALIPER   
 PHOTO EL .BARNS/E   00 000 00 00          :  8  PHOTO EL            
 POR(DEN) .PERCENT   00 890 00 00          :  9  DENSITY POROSITY    
 DEN(CDL) .G/CC      00 350 00 00          : 10  COMPENSATED DENSITY 
 COMP     .G/CC      00 356 00 00          : 11  DEN COMPENSATION    
 RES(MG)  .OHM-M     00 220 00 00          : 12  MEDIUM GUARD RES    
 SP       .MV        00 010 00 00          : 13  SPON POTENTIAL      
 RES(MI)  .OHM-M     00 120 00 00          : 14  MED INDUCTION RES   
 RES(DI)  .OHM-M     00 120 00 00          : 15  DEEP INDUCTION RES  
 TENSION  .CPS       00 000 00 00          : 16  LINE TENSION        
~Parameter Information Block
#MNEM.UNIT   Information     Description
#---------- ---------------  ------------------------
 FILE.      PROCESSED          :File Type
 FIID.      4000               :File Type Identifier
 VERS.      4.00T              :System Version
 SER .      1                  :System Serial Number
 TRUK.      .67455             :Truck Calibration Number
 TOOL.        2487             :Tool Serial Number
 TIME.      1042               :Time    HrHrMinMin
 LAT .      N/A                :Latitude
 LON .      N/A                :Longitude
 LMF .      K.B.               :Log Measured From
 DMF .      K.B.               :Driller Measured From
 PD  .      G.L.               :Permanent Data
 PDEV.                         :Elevation Permanent Data
 EKB .M                        :Elevation Kelly Bushing
 ELEV.DF                       :Elevation DF
 EGL .M                        :Elevation Ground Level
 DRDP.      1260               :Driller's Depth
 CASD.                         :Casing Diameter
 CASB.      0                  :Casing Bottom
 CASX.      STEEL              :Casing Type
 CAST.      NA                 :Casing Thickness
 TNOC.      20:00              :Time Circulation Stopped
 LOGU.      806                :Logging Unit
 RECB.      J FRANKLIN         :Recorded By
 OSR1.      DIL DEN            :Other Services
 OSR2.      NEUT ML            :Other Services
 OSR3.                         :Other Services
 BS  .IN        6.75           :Bit Size
 MST .      DP                 :Mean Surface Temperature
 TGRD.      NA                 :Temperature Gradiant
 MAGN.      4                  :Magnetic Declination
 MDEN.      2.71               :Density Matrix
 MATR.      LIMESTONE          :Neutron Matrix
 DTMT.      49                 :Delta T Matrix
 DTFL.                         :Delta T Fluid
 MUDS.      PIT                :Mud Sample Source
 MRS .      2.2                :Mud Resistivity
 MTP .      78                 :Mud Temperature
 MFRS.      1.66               :Resistivity Mud Filtrate
 MFTP.                         :Temperature Mud Filtrate
 MCRS.      3.3                :Resistivity Mud Cake
 MCTP.                         :Temperature Mud Cake
 FTYP.      FGM                :Fluid Type
 FD  .LB/G   9.1               :Mud Weight
 DFV .S                        :Fluid Viscosity
 FPH .                         :Fuild PH
 ELCO.      10000              :Electron Cutoff
 CASL.      8.62               :Casing Logger
 LOTD.      1250               :Logger TD
 ARTM.      21:15              :Arrival Time
 DPTM.      23:15              :Departure Time
 RIGN.      RIG 1              :Rig Number
~Other Information
#MNEM.UNIT  Information      Description
#---------- ---------------  ------------------------
# -------------------------- 
~A DEPTH  GAMMA    TEMP  POR(NEU) 1N    2N    CALIPER PHOTO EL POR(DEN) DEN(CDL) COMP  RES(MG)  SP    RES(MI)  RES(DI)  TENSION  
# ...
1174.800    156.8  72.3  27.6      0.7   0.6   6.2     3.1     11.7     2.51     0.030     5.2  210.2     2.9      2.7    351.8  
1175.000    115.0  72.3  23.9      0.7   0.6   6.2     3.8     16.3     2.43     0.006     5.2  210.0     2.9      2.7    355.1  
1175.200    156.8  72.3  20.8      0.7   0.6   6.2     3.2     10.6     2.53     0.041     5.1  209.7     2.9      2.7    358.8  
1175.400    120.2  72.3  23.1      0.7   0.6   6.2     3.3     16.0     2.44     0.004     5.2  209.8     2.9      2.7    361.9  
1175.600    139.4  72.3  26.6      0.7   0.6   6.2     3.3     10.0     2.54     0.059     5.2  209.2     2.9      2.8    364.2  
1175.800    115.0  72.3  28.6      0.7   0.6   6.2     3.0     19.2     2.38     -0.033     5.2  209.0     2.9      2.8    362.0  
1176.000     90.5  72.3  25.5      0.7   0.6   6.2     3.3     10.5     2.53     0.058     5.3  208.7     2.9      2.8    357.1  
1176.200    188.2  72.3  23.0      0.8   0.7   6.2     3.1     12.6     2.49     0.037     5.3  208.3     2.9      2.9    348.7  
1176.400    146.4  72.3  29.1      0.7   0.6   6.2     3.7     13.5     2.48     0.031     5.2  208.1     3.0      2.9    345.9  
1176.600    132.4  72.3  29.3      0.7   0.5   6.2     3.4     16.0     2.44     -0.006     5.1  207.4     3.0      3.0    346.1  
1176.800    125.4  72.3  24.1      0.6   0.5   6.2     4.1     18.0     2.40     -0.037     5.1  207.0     3.1      3.1    348.2  
1177.000    133.3  72.3  26.8      0.6   0.5   6.2     4.2     11.1     2.52     0.021     5.0  206.6     3.1      3.3    352.7  
1177.200    121.9  72.3  21.4      0.7   0.5   6.2     3.5     12.5     2.50     0.017     5.1  205.6     3.2      3.4    356.7  
1177.400    174.3  72.3  29.1      0.7   0.6   6.2     3.4     12.2     2.50     0.024     5.2  204.8     3.3      3.6    361.3  
1177.600    141.1  72.3  26.0      0.8   0.6   6.2     4.1     11.5     2.51     0.039     5.2  203.9     3.4      3.8    365.1  
1177.800    153.3  72.3  24.6      0.8   0.6   6.2     3.4      7.0     2.59     0.072     5.3  202.7     3.6      4.1    364.7  
1178.000    118.4  72.3  22.1      0.9   0.7   6.2     3.5     10.9     2.52     0.061     5.5  201.4     3.8      4.3    360.5  
1178.200    175.1  72.3  20.3      0.9   0.7   6.2     3.4      8.1     2.57     0.069     5.5  199.6     4.0      4.6    355.2  
1178.400    128.9  72.3  22.9      1.1   0.8   6.2     3.8      8.2     2.57     0.042     5.7  198.0     4.3      5.0    349.0  
1178.600    111.5  72.3  22.9      1.1   0.9   6.2     3.6     10.6     2.53     -0.020     5.5  196.3     4.6      5.4    347.9  
1178.800    121.9  72.3  18.3      1.2   1.0   6.2     3.4      7.8     2.58     -0.013     5.7  193.8     5.0      5.8    348.4  
1179.000    133.3  72.3  13.9      1.2   1.0   6.2     5.1      4.6     2.63     -0.007     6.1  190.8     5.6      6.4    350.6  
1179.200    121.9  72.3  11.4      1.6   1.3   6.2     4.6      5.9     2.61     -0.013     6.7  186.4     6.3      7.0    352.8  
1179.400     59.1  72.3   9.7      2.2   1.9   6.2     4.7      3.4     2.65     0.009     8.2  181.2     7.1      7.7    358.9  
1179.600    115.0  72.3   8.1      3.2   2.8   6.2     4.6      5.6     2.61     0.003    10.2  174.4     8.0      8.5    363.8  
1179.800     86.2  72.3   3.0      6.3   5.5   6.2     4.9      1.1     2.69     0.043    15.0  163.6     8.8      9.5    365.2  
1180.000     20.7  72.3   2.4      8.4   8.3   6.2     5.2      7.7     2.58     0.017    25.1  151.8     9.7     10.7    359.0  
1180.200     20.7  72.3  -0.2      7.7   8.0   6.2     5.2      6.3     2.60     0.031    51.6  137.2    10.7     12.1    354.0  
1180.400      3.3  72.3  -0.8      8.1   8.2   6.2     4.8     10.4     2.53     0.008    77.0  122.9    11.8     13.7    349.4  
1180.600     12.9  72.3  -0.5      7.5   7.6   6.2     4.4      5.7     2.61     0.038    90.9  108.4    13.3     15.7    348.7  
1180.800     17.3  72.3   0.1      6.7   7.0   6.2     5.1      8.6     2.56     0.024   108.5  97.3     14.9     17.9    350.8  
1181.000     24.2  72.3   1.1      6.3   6.7   6.2     5.3      8.7     2.56     0.031   128.3  89.8     16.5     19.9    353.4  
1181.200     20.7  72.3   1.8      6.1   6.5   6.2     4.6     10.3     2.53     -0.000   136.8  84.0     18.8     21.6    357.4  
1181.400     18.1  72.3   2.0      6.0   6.4   6.2     4.4      6.8     2.59     0.038   131.9  78.7     21.2     23.4    361.6  
1181.600      6.8  72.3   1.5      5.8   6.2   6.2     4.6      5.2     2.62     0.042   125.5  73.6     23.3     24.2    366.6  
1181.800     34.7  72.3   4.2      5.5   6.0   6.2     4.7      9.6     2.55     0.019   124.5  70.6     25.4     25.0    368.4  
1182.000      3.3  72.3   3.9      5.4   5.9   6.2     4.1      6.7     2.60     0.032   129.6  67.7     27.5     25.3    365.2  
1182.200     15.5  72.3   4.0      5.4   5.8   6.2     3.8      7.1     2.59     0.010   138.2  64.2     29.4     25.2    357.9  
1182.400     10.3  72.3   5.0      5.3   5.8   6.2     4.6      9.0     2.56     -0.013   146.9  61.7     30.9     25.4    352.4  
1182.600     27.7  72.3   4.2      5.5   6.0   6.2     4.3     10.5     2.53     -0.033   156.4  59.4     32.7     25.0    351.4  
1182.800     34.7  72.3   4.7      5.6   5.9   6.2     4.5     10.2     2.53     0.012   170.2  57.3     33.8     24.2    353.1  
1183.000     28.6  72.3   4.8      5.5   5.9   6.2     5.2      6.3     2.60     0.059   178.7  55.3     34.6     24.3    357.2  
1183.200     31.2  72.3   3.9      5.3   5.8   6.2     4.8     10.1     2.54     0.024   175.3  53.6     35.7     24.0    361.2  
1183.400     13.8  72.3   4.8      4.9   5.4   6.2     4.9     14.9     2.46     -0.026   162.1  53.3     36.0     23.8    364.1  
1183.600     10.3  72.3   4.9      4.7   5.4   6.2     5.1     13.7     2.48     0.004   156.7  52.1     36.6     23.5    366.7  
1183.800     31.2  72.3   4.5      4.7   5.3   6.2     4.6     13.9     2.47     0.000   155.9  51.9     36.9     23.8    367.2  
1184.000     34.7  72.3   5.9      4.7   5.2   6.2     4.4     15.1     2.45     -0.006   151.6  51.1     37.1     23.8    362.5  
1184.200     27.7  72.3   7.2      4.8   5.3   6.2     4.7      9.5     2.55     0.040   146.6  50.2     37.9     24.2    357.9  
1184.400     20.7  72.3   9.4      4.6   5.2   6.2     5.0     12.4     2.50     0.039   142.5  49.3     37.8     24.3    352.8  
1184.600     20.7  72.3   7.3      4.5   5.2   6.2     4.3      9.6     2.55     0.032   143.2  49.1     38.0     24.5    350.2  
1184.800     31.2  72.3   6.2      4.8   5.4   6.2     4.4     14.3     2.47     -0.023   141.8  48.6     38.5     24.6    350.4  
1185.000     34.7  72.3   4.6      5.1   5.3   6.2     4.5     12.5     2.50     -0.036   132.5  48.5     38.1     24.5    352.8  
1185.200     28.6  72.3   6.8      5.4   5.7   6.2     4.7      8.1     2.57     0.001   126.1  48.3     38.4     24.9    355.9  
1185.400     27.7  72.3   6.0      5.3   5.6   6.2     4.5      2.6     2.67     0.037   123.3  48.6     37.7     24.7    358.9  
1185.600     13.8  72.3   4.6      5.3   5.8   6.2     4.4      5.5     2.62     0.034   125.3  48.7     38.8     24.6    359.9  
1185.800     20.7  72.3   3.7      5.1   5.6   6.2     4.5      9.4     2.55     0.016   129.9  49.2     38.2     24.8    362.3  
1186.000     24.2  72.3   5.2      4.9   5.4   6.2     4.4     12.6     2.50     -0.021   133.4  49.5     38.4     24.5    359.1  
1186.200     31.2  72.3   4.0      5.1   5.6   6.2     4.7      8.5     2.56     0.032   138.4  50.0     38.3     24.3    351.5  
1186.400      6.8  72.3   4.2      5.6   5.8   6.2     4.4      9.9     2.54     0.015   142.8  50.7     38.2     24.1    345.9  
1186.600     26.0  72.3   5.3      5.6   5.9   6.2     4.3      4.3     2.64     0.059   142.0  51.6     37.5     24.2    343.6  
1186.800     17.3  72.3   5.2      5.3   5.8   6.2     4.6      8.3     2.57     0.034   137.7  52.3     37.4     24.0    345.9  
1187.000     31.2  72.3   3.9      5.1   5.5   6.2     4.8      2.0     2.68     0.085   132.4  52.9     37.5     24.0    349.6  
