~Version Information
 VERS.                2.0:  CWLS LOG ASCII STANDARD -VERSION 2.0
 WRAP.                 NO:  ONE LINE PER DEPTH STEP
~WELL INFORMATION BLOCK
#MNEM.UNIT       DATA              DESCRIPTION OF MNEMONIC
#---------    -------------            ------------------------
 STRT.FT  97.400                         :START DEPTH
 STOP.FT  1255.400                       :STOP DEPTH
 STEP.FT  0.200                          :STEP    UP_HOLE  
 NULL.    -999.25                        :NULL VALUE
 COMP.    BANNER OIL & GAS LLC           :COMPANY
 WELL.    MARY GREEN 41                                                :WELL
 FLD .     REGULAR                       :FIELD\LOCATION
 LOC .          N/A   N/A                :LOCATION
 CNTY.    ARCHER                         :COUNTY
 STAT.    TEXAS                          :STATE
 CTRY.    USA                            :COUNTRY
 SRVC.    45                             :SERVICE COMPANY
 DATE.    07/31/2015                     :LOG DATE
 API .   42-009-42911                        :API NUMBER
 LIC .    N/A                            :LICENSE NUMBER
~Curve Information Block
#MNEM.UNIT      API CODE     Curve Description
#---------    -------------  ------------------------
 DEPT     .FT        00 001 00 00          :  1  DEPTH   
 GAMMA    .API-GR    00 310 00 00          :  2  GAMMA RAY           
 TEMP     .DEG F     00 660 00 00          :  3  TEMPERATURE         
 POR(NEU) .PERCENT   00 330 00 00          :  4  NEUTRON POROSITY    
 1N       .OHM-M     00 000 00 00          :  5  1N                  
 2N       .OHM-M     00 000 00 00          :  6  2N                  
 CALIPER  .INCH      00 280 00 00          :  7  SHORT ARM CALIPER   
 PHOTO EL .BARNS/E   00 000 00 00          :  8  PHOTO EL            
 POR(DEN) .PERCENT   00 890 00 00          :  9  DENSITY POROSITY    
 DEN(CDL) .G/CC      00 350 00 00          : 10  COMPENSATED DENSITY 
 COMP     .G/CC      00 356 00 00          : 11  DEN COMPENSATION    
 RES(MG)  .OHM-M     00 220 00 00          : 12  MEDIUM GUARD RES    
 SP       .MV        00 010 00 00          : 13  SPON POTENTIAL      
 RES(MI)  .OHM-M     00 120 00 00          : 14  MED INDUCTION RES   
 RES(DI)  .OHM-M     00 120 00 00          : 15  DEEP INDUCTION RES  
 TENSION  .CPS       00 000 00 00          : 16  LINE TENSION        
~Parameter Information Block
#MNEM.UNIT   Information     Description
#---------- ---------------  ------------------------
 FILE.      PROCESSED          :File Type
 FIID.      4000               :File Type Identifier
 VERS.      4.00T              :System Version
 SER .      1                  :System Serial Number
 TRUK.      .67455             :Truck Calibration Number
 TOOL.        2487             :Tool Serial Number
 TIME.      1042               :Time    HrHrMinMin
 LAT .      N/A                :Latitude
 LON .      N/A                :Longitude
 LMF .      K.B.               :Log Measured From
 DMF .      K.B.               :Driller Measured From
 PD  .      G.L.               :Permanent Data
 PDEV.                         :Elevation Permanent Data
 EKB .M                        :Elevation Kelly Bushing
 ELEV.DF                       :Elevation DF
 EGL .M                        :Elevation Ground Level
 DRDP.      1260               :Driller's Depth
 CASD.                         :Casing Diameter
 CASB.      0                  :Casing Bottom
 CASX.      STEEL              :Casing Type
 CAST.      NA                 :Casing Thickness
 TNOC.      20:00              :Time Circulation Stopped
 LOGU.      806                :Logging Unit
 RECB.      J FRANKLIN         :Recorded By
 OSR1.      DIL DEN            :Other Services
 OSR2.      NEUT ML            :Other Services
 OSR3.                         :Other Services
 BS  .IN        6.75           :Bit Size
 MST .      DP                 :Mean Surface Temperature
 TGRD.      NA                 :Temperature Gradiant
 MAGN.      4                  :Magnetic Declination
 MDEN.      2.71               :Density Matrix
 MATR.      LIMESTONE          :Neutron Matrix
 DTMT.      49                 :Delta T Matrix
 DTFL.                         :Delta T Fluid
 MUDS.      PIT                :Mud Sample Source
 MRS .      2.2                :Mud Resistivity
 MTP .      78                 :Mud Temperature
 MFRS.      1.66               :Resistivity Mud Filtrate
 MFTP.                         :Temperature Mud Filtrate
 MCRS.      3.3                :Resistivity Mud Cake
 MCTP.                         :Temperature Mud Cake
 FTYP.      FGM                :Fluid Type
 FD  .LB/G   9.1               :Mud Weight
 DFV .S                        :Fluid Viscosity
 FPH .                         :Fuild PH
 ELCO.      10000              :Electron Cutoff
 CASL.      8.62               :Casing Logger
 LOTD.      1250               :Logger TD
 ARTM.      21:15              :Arrival Time
 DPTM.      23:15              :Departure Time
 RIGN.      RIG 1              :Rig Number
~Other Information
#MNEM.UNIT  Information      Description
#---------- ---------------  ------------------------
# -------------------------- 
~A DEPTH  GAMMA    TEMP  POR(NEU) 1N    2N    CALIPER PHOTO EL POR(DEN) DEN(CDL) COMP  RES(MG)  SP    RES(MI)  RES(DI)  TENSION  
# ...
 554.800     46.9  71.9  17.0      0.3   0.6   2.0     1.7     42.0     1.99     0.179     9.0  80.4      3.0      2.6    292.2  
 555.000     27.7  71.9  23.0      0.3   0.6   2.0     1.6     42.2     1.99     0.182     9.7  84.7      3.0      2.6    291.6  
 555.200     10.3  71.9  20.3      0.3   0.6   2.0     1.8     52.4     1.81     0.050     9.8  145.8     3.0      2.7    289.3  
 555.400     38.2  71.9  19.9      0.3   0.6   2.0     1.5     60.3     1.68     -0.020    11.0  181.4     2.9      2.7    287.0  
 555.600     24.2  71.9  25.1      0.3   0.6   2.0     2.0     57.1     1.73     0.054    11.0  204.4     2.8      2.8    287.6  
 555.800     31.2  71.9  29.6      0.3   0.6   2.0     1.4     64.5     1.61     0.073     9.2  216.7     2.7      2.9    288.5  
 556.000     45.2  71.9  36.5      0.2   0.5   2.0     0.6     79.6     1.35     -0.034     7.3  221.4     2.7      2.9    291.0  
 556.200     34.7  71.9  34.7      0.1   0.3   2.0     0.6     82.8     1.29     -0.045     5.7  228.2     2.7      3.0    291.1  
 556.400     45.2  71.9  35.7      0.1   0.1   2.0     0.4     80.5     1.33     -0.029     4.3  233.6     2.8      3.1    291.5  
 556.600     20.7  71.9  36.3      0.1   0.1   2.0     0.5     81.9     1.31     -0.039     4.2  237.0     2.9      3.2    291.2  
 556.800     67.9  71.9  40.0      0.1   0.1   2.0     0.5     81.1     1.32     -0.039     3.8  237.4     3.0      3.2    290.5  
 557.000     52.1  71.9  43.0      0.1   0.1   2.0     0.5     76.9     1.39     -0.019     4.0  237.3     3.1      3.3    289.2  
 557.200     55.6  71.9  43.1      0.1   0.1   2.0     0.8     71.5     1.49     0.021     3.8  235.7     3.2      3.3    287.6  
 557.400     97.5  71.9  34.1      0.1   0.1   2.0     0.8     61.8     1.65     0.079     4.5  236.7     3.2      3.3    286.5  
 557.600     55.6  71.9  46.3      0.1   0.1   2.0     1.0     56.2     1.75     0.106     4.3  236.8     3.3      3.3    286.4  
 557.800     90.5  71.9  55.1      0.1   0.1   2.0     1.2     54.0     1.79     0.107     4.8  238.1     3.4      3.3    287.8  
 558.000    101.0  71.9  52.0      0.1   0.1   2.0     1.4     55.4     1.76     0.125     4.8  237.8     3.4      3.3    291.2  
 558.200     94.0  71.9  43.0      0.1   0.1   2.0     1.2     57.7     1.72     0.127     5.0  237.8     3.5      3.3    292.1  
 558.400     52.1  71.9  37.5      0.1   0.1   2.0     1.2     63.0     1.63     0.096     5.0  239.8     3.5      3.4    292.9  
 558.600    121.9  71.9  49.9      0.1   0.1   2.0     1.0     61.7     1.66     0.113     5.3  241.4     3.5      3.4    292.2  
 558.800    112.3  71.9  45.5      0.1   0.1   2.0     0.9     61.9     1.65     0.073     5.5  244.9     3.5      3.5    290.5  
 559.000     87.0  71.9  46.2      0.1   0.1   2.0     1.3     59.0     1.70     0.093     5.7  246.9     3.5      3.6    290.3  
 559.200     66.1  71.9  50.1      0.1   0.1   2.0     1.3     62.5     1.64     0.092     5.2  246.5     3.5      3.6    287.8  
 559.400     69.6  71.9  44.9      0.1   0.1   2.0     1.1     65.5     1.59     0.091     5.3  246.3     3.5      3.7    286.2  
 559.600     87.0  71.9  36.7      0.1   0.1   2.0     0.9     71.3     1.49     0.053     5.0  245.8     3.5      3.8    285.8  
 559.800     69.6  71.9  37.0      0.1   0.1   2.0     0.9     76.8     1.40     0.013     5.2  246.8     3.5      3.8    288.2  
 560.000     88.8  71.9  42.1      0.1   0.1   2.0     0.8     78.6     1.37     -0.007     4.8  247.0     3.6      3.9    290.6  
 560.200    108.0  71.9  39.7      0.1   0.1   2.0     1.0     76.2     1.41     0.017     5.0  247.3     3.6      3.9    292.0  
 560.400     69.6  71.9  33.8      0.1   0.1   2.0     1.0     75.3     1.42     0.025     4.8  247.6     3.7      3.9    292.5  
 560.600     90.5  71.9  49.2      0.1   0.1   2.0     1.0     72.7     1.47     0.044     4.8  247.3     3.8      3.9    292.7  
 560.800     97.5  71.9  45.7      0.1   0.1   2.0     1.2     68.3     1.54     0.082     5.0  248.2     3.9      3.9    292.4  
 561.000     97.5  71.9  50.9      0.1   0.1   2.0     1.1     62.2     1.65     0.091     5.0  248.6     3.9      3.9    291.2  
 561.200     83.6  71.9  34.0      0.1   0.1   2.0     1.1     57.1     1.73     0.093     4.8  248.7     4.0      3.9    287.0  
 561.400     87.0  71.9  40.5      0.1   0.1   2.0     1.3     45.8     1.93     0.165     5.2  248.9     4.0      3.9    286.5  
 561.600     97.5  71.9  45.1      0.1   0.1   2.0     1.1     37.9     2.06     0.156     5.0  248.6     4.0      3.9    287.3  
 561.800     83.6  72.0  29.2      0.1   0.2   2.0     1.2     42.1     1.99     0.053     5.0  249.0     4.1      3.9    288.0  
 562.000    125.4  71.9  29.1      0.1   0.2   2.0     1.3     40.7     2.01     0.016     5.2  249.2     4.1      4.0    289.2  
 562.200    104.5  71.9  30.6      0.1   0.2   2.0     1.4     42.3     1.99     -0.014     5.7  249.6     4.2      4.0    291.1  
 562.400     83.6  71.9  28.5      0.1   0.2   2.0     1.8     45.5     1.93     -0.004     5.5  249.4     4.2      4.1    291.9  
 562.600    170.8  71.9  27.3      0.1   0.2   2.0     1.9     46.2     1.92     0.063     5.5  249.2     4.2      4.1    291.8  
 562.800    153.3  71.9  28.6      0.2   0.3   2.0     1.2     46.5     1.91     0.199     6.0  249.1     4.1      4.2    290.0  
 563.000    164.7  71.9  29.8      0.2   0.3   2.0     1.1     61.7     1.65     0.117     6.3  249.3     4.1      4.2    289.8  
 563.200    191.7  71.9  32.5      0.2   0.3   2.0     1.3     62.3     1.64     0.105     6.7  250.3     4.1      4.3    287.3  
 563.400    101.0  72.0  28.1      0.1   0.2   2.0     1.2     56.6     1.74     0.129     6.7  251.0     4.1      4.4    286.5  
 563.600    115.0  72.0  31.5      0.1   0.2   2.0     1.1     58.5     1.71     0.081     6.2  251.0     4.3      4.4    286.1  
 563.800     80.1  71.9  34.3      0.2   0.3   2.0     1.2     58.5     1.71     0.098     6.0  250.9     4.4      4.5    287.5  
 564.000    104.5  71.9  31.5      0.2   0.3   2.0     1.4     57.4     1.73     0.130     6.0  250.4     4.5      4.6    289.0  
 564.200     83.6  72.0  35.0      0.2   0.3   2.0     1.3     53.2     1.80     0.170     5.7  249.6     4.5      4.7    290.5  
 564.400     90.5  71.9  33.1      0.2   0.3   2.0     1.4     53.3     1.80     0.156     6.0  249.6     4.6      4.7    290.7  
 564.600     62.6  71.9  32.8      0.2   0.3   2.0     1.3     50.0     1.86     0.176     5.8  250.0     4.7      4.8    290.9  
 564.800     78.3  72.0  29.5      0.2   0.4   2.0     1.2     44.9     1.94     0.200     6.0  250.0     4.8      4.8    290.5  
 565.000     94.0  72.0  39.1      0.2   0.4   2.0     1.5     42.8     1.98     0.166     6.1  249.7     4.9      4.8    290.3  
 565.200     90.5  71.9  25.8      0.3   0.5   2.0     1.6     45.5     1.93     0.110     6.2  249.8     4.9      4.9    287.8  
 565.400     69.6  71.9  30.8      0.3   0.5   2.0     1.7     46.0     1.92     0.106     6.2  249.2     4.9      4.9    286.5  
 565.600     90.5  72.0  28.5      0.3   0.5   2.0     1.7     41.6     2.00     0.187     6.5  249.0     4.9      4.9    285.7  
 565.800    121.9  71.9  24.1      0.3   0.6   2.0     1.9     38.3     2.05     0.232     6.5  249.5     5.0      5.0    286.3  
 566.000     76.6  72.0  26.1      0.4   0.6   2.0     1.7     40.4     2.02     0.150     6.3  249.0     5.0      5.0    287.1  
 566.200     76.6  72.0  25.2      0.5   0.6   2.0     1.7     41.6     2.00     0.108     6.5  248.2     5.1      5.0    289.0  
 566.400     80.9  72.0  20.6      0.4   0.6   2.0     1.6     36.3     2.09     0.163     6.4  247.9     5.1      4.9    289.4  
 566.600     90.5  72.0  25.2      0.4   0.6   2.0     1.8     37.5     2.07     0.155     6.8  246.5     5.2      5.0    289.7  
 566.800     55.6  72.0  19.1      0.4   0.7   2.0     2.2     34.7     2.12     0.204     6.8  244.5     5.1      5.0    288.8  
 567.000     94.0  72.0  19.5      0.4   0.7   2.0     1.9     31.3     2.17     0.218     7.0  245.8     5.1      5.0    287.6  
