~Version Information
 VERS.                2.0:  CWLS LOG ASCII STANDARD -VERSION 2.0
 WRAP.                 NO:  ONE LINE PER DEPTH STEP
~WELL INFORMATION BLOCK
#MNEM.UNIT       DATA              DESCRIPTION OF MNEMONIC
#---------    -------------            ------------------------
 STRT.FT  97.400                         :START DEPTH
 STOP.FT  1255.400                       :STOP DEPTH
 STEP.FT  0.200                          :STEP    UP_HOLE  
 NULL.    -999.25                        :NULL VALUE
 COMP.    BANNER OIL & GAS LLC           :COMPANY
 WELL.    MARY GREEN 41                                                :WELL
 FLD .     REGULAR                       :FIELD\LOCATION
 LOC .          N/A   N/A                :LOCATION
 CNTY.    ARCHER                         :COUNTY
 STAT.    TEXAS                          :STATE
 CTRY.    USA                            :COUNTRY
 SRVC.    45                             :SERVICE COMPANY
 DATE.    07/31/2015                     :LOG DATE
 API .   42-009-42911                        :API NUMBER
 LIC .    N/A                            :LICENSE NUMBER
~Curve Information Block
#MNEM.UNIT      API CODE     Curve Description
#---------    -------------  ------------------------
 DEPT     .FT        00 001 00 00          :  1  DEPTH   
 GAMMA    .API-GR    00 310 00 00          :  2  GAMMA RAY           
 TEMP     .DEG F     00 660 00 00          :  3  TEMPERATURE         
 POR(NEU) .PERCENT   00 330 00 00          :  4  NEUTRON POROSITY    
 1N       .OHM-M     00 000 00 00          :  5  1N                  
 2N       .OHM-M     00 000 00 00          :  6  2N                  
 CALIPER  .INCH      00 280 00 00          :  7  SHORT ARM CALIPER   
 PHOTO EL .BARNS/E   00 000 00 00          :  8  PHOTO EL            
 POR(DEN) .PERCENT   00 890 00 00          :  9  DENSITY POROSITY    
 DEN(CDL) .G/CC      00 350 00 00          : 10  COMPENSATED DENSITY 
 COMP     .G/CC      00 356 00 00          : 11  DEN COMPENSATION    
 RES(MG)  .OHM-M     00 220 00 00          : 12  MEDIUM GUARD RES    
 SP       .MV        00 010 00 00          : 13  SPON POTENTIAL      
 RES(MI)  .OHM-M     00 120 00 00          : 14  MED INDUCTION RES   
 RES(DI)  .OHM-M     00 120 00 00          : 15  DEEP INDUCTION RES  
 TENSION  .CPS       00 000 00 00          : 16  LINE TENSION        
~Parameter Information Block
#MNEM.UNIT   Information     Description
#---------- ---------------  ------------------------
 FILE.      PROCESSED          :File Type
 FIID.      4000               :File Type Identifier
 VERS.      4.00T              :System Version
 SER .      1                  :System Serial Number
 TRUK.      .67455             :Truck Calibration Number
 TOOL.        2487             :Tool Serial Number
 TIME.      1042               :Time    HrHrMinMin
 LAT .      N/A                :Latitude
 LON .      N/A                :Longitude
 LMF .      K.B.               :Log Measured From
 DMF .      K.B.               :Driller Measured From
 PD  .      G.L.               :Permanent Data
 PDEV.                         :Elevation Permanent Data
 EKB .M                        :Elevation Kelly Bushing
 ELEV.DF                       :Elevation DF
 EGL .M                        :Elevation Ground Level
 DRDP.      1260               :Driller's Depth
 CASD.                         :Casing Diameter
 CASB.      0                  :Casing Bottom
 CASX.      STEEL              :Casing Type
 CAST.      NA                 :Casing Thickness
 TNOC.      20:00              :Time Circulation Stopped
 LOGU.      806                :Logging Unit
 RECB.      J FRANKLIN         :Recorded By
 OSR1.      DIL DEN            :Other Services
 OSR2.      NEUT ML            :Other Services
 OSR3.                         :Other Services
 BS  .IN        6.75           :Bit Size
 MST .      DP                 :Mean Surface Temperature
 TGRD.      NA                 :Temperature Gradiant
 MAGN.      4                  :Magnetic Declination
 MDEN.      2.71               :Density Matrix
 MATR.      LIMESTONE          :Neutron Matrix
 DTMT.      49                 :Delta T Matrix
 DTFL.                         :Delta T Fluid
 MUDS.      PIT                :Mud Sample Source
 MRS .      2.2                :Mud Resistivity
 MTP .      78                 :Mud Temperature
 MFRS.      1.66               :Resistivity Mud Filtrate
 MFTP.                         :Temperature Mud Filtrate
 MCRS.      3.3                :Resistivity Mud Cake
 MCTP.                         :Temperature Mud Cake
 FTYP.      FGM                :Fluid Type
 FD  .LB/G   9.1               :Mud Weight
 DFV .S                        :Fluid Viscosity
 FPH .                         :Fuild PH
 ELCO.      10000              :Electron Cutoff
 CASL.      8.62               :Casing Logger
 LOTD.      1250               :Logger TD
 ARTM.      21:15              :Arrival Time
 DPTM.      23:15              :Departure Time
 RIGN.      RIG 1              :Rig Number
~Other Information
#MNEM.UNIT  Information      Description
#---------- ---------------  ------------------------
# -------------------------- 
~A DEPTH  GAMMA    TEMP  POR(NEU) 1N    2N    CALIPER PHOTO EL POR(DEN) DEN(CDL) COMP  RES(MG)  SP    RES(MI)  RES(DI)  TENSION  
# ...
 716.000    104.5  72.1  35.1      0.1   0.1   2.0     0.9     77.5     1.38     -0.010     5.3  169.4     4.2      4.3    300.3  
 716.200     88.8  72.1  46.0      0.1   0.2   2.0     1.0     80.2     1.34     -0.031     5.2  99.0      4.2      4.3    301.4  
 716.400     52.1  72.1  36.2      0.1   0.2   2.0     1.2     77.0     1.39     -0.004     5.3  97.8      4.3      4.4    301.4  
 716.600     67.9  72.1  33.8      0.1   0.2   2.0     1.3     75.7     1.41     0.026     5.3  97.5      4.3      4.4    302.0  
 716.800     94.0  72.1  46.0      0.1   0.2   2.0     0.8     76.2     1.41     -0.005     5.2  97.2      4.4      4.4    301.2  
 717.000     62.6  72.1  42.8      0.1   0.2   2.0     1.2     72.4     1.47     0.048     5.3  96.1      4.4      4.5    299.1  
 717.200     52.1  72.1  42.5      0.1   0.2   2.0     1.0     75.7     1.42     0.009     5.3  95.7      4.5      4.5    296.2  
 717.400     67.9  72.1  38.7      0.1   0.2   2.0     1.3     72.2     1.48     0.031     5.3  98.2      4.5      4.5    296.6  
 717.600     94.0  72.1  31.4      0.1   0.2   2.0     1.1     69.0     1.53     0.050     5.0  97.4      4.7      4.6    297.7  
 717.800    104.5  72.1  32.6      0.1   0.2   2.0     1.5     65.5     1.59     0.069     5.3  96.3      4.8      4.6    300.2  
 718.000     52.1  72.1  52.5      0.1   0.2   2.0     1.8     60.3     1.68     0.124     5.2  96.0      5.0      4.6    301.7  
 718.200    104.5  72.1  54.4      0.1   0.3   2.0     1.8     57.2     1.73     0.134     5.5  96.0      5.0      4.7    302.6  
 718.400     73.1  72.1  26.8      0.2   0.3   2.0     1.9     58.9     1.70     0.098     5.7  96.4      5.1      4.7    303.2  
 718.600     78.3  72.1  31.8      0.2   0.3   2.0     1.6     61.4     1.66     0.048     6.0  96.7      5.1      4.8    301.7  
 718.800    104.5  72.1  29.6      0.2   0.4   2.0     2.0     56.0     1.75     0.122     6.2  96.8      5.1      4.8    300.9  
 719.000     62.6  72.1  29.0      0.2   0.4   2.0     1.6     53.0     1.80     0.154     6.7  97.0      5.0      4.9    297.8  
 719.200    115.0  72.1  28.7      0.3   0.4   2.0     1.7     52.8     1.81     0.144     6.3  97.1      5.1      4.9    295.3  
 719.400     52.1  72.1  18.2      0.2   0.4   2.0     1.6     45.8     1.93     0.203     6.2  97.1      5.1      5.0    294.8  
 719.600     83.6  72.1  22.0      0.2   0.4   2.0     1.7     49.0     1.87     0.120     6.2  96.6      5.2      5.1    295.5  
 719.800     73.1  72.1  20.2      0.2   0.4   2.0     1.9     43.3     1.97     0.183     6.0  97.3      5.3      5.2    300.0  
 720.000    120.2  72.1  21.2      0.3   0.4   2.0     1.6     38.0     2.06     0.207     6.0  97.2      5.4      5.4    301.4  
 720.200     78.3  72.1  22.2      0.3   0.5   2.0     1.6     41.3     2.00     0.173     6.5  97.4      5.5      5.5    303.0  
 720.400    151.6  72.1  21.2      0.5   0.7   2.0     1.8     42.1     1.99     0.173     6.7  97.8      5.5      5.5    302.8  
 720.600     99.3  72.1  21.4      0.6   0.8   2.0     1.6     42.9     1.98     0.174     7.0  98.5      5.5      5.6    302.6  
 720.800     78.3  72.1  19.8      0.7   0.9   2.0     1.9     38.4     2.05     0.229     7.2  98.5      5.5      5.7    302.4  
 721.000    109.7  72.1  15.4      0.7   1.0   2.0     2.0     41.7     2.00     0.179     7.3  98.6      5.6      5.8    298.7  
 721.200    101.0  72.1  18.8      0.7   1.0   2.0     1.9     38.9     2.04     0.198     7.3  98.5      5.6      5.8    296.4  
 721.400    120.2  72.1  22.6      0.7   1.0   2.0     2.0     33.5     2.14     0.230     7.3  98.2      5.7      5.9    296.0  
 721.600    104.5  72.1  22.5      0.7   0.9   2.0     2.3     29.6     2.20     0.240     7.0  97.5      5.8      5.8    297.3  
 721.800    125.4  72.1  20.8      0.7   1.0   2.0     2.3     29.6     2.20     0.206     7.0  96.9      6.0      5.8    301.1  
 722.000     88.8  72.1  18.5      0.7   1.0   2.0     2.4     29.8     2.20     0.185     6.7  96.7      6.1      5.7    301.7  
 722.200     94.0  72.1  19.6      0.7   1.0   2.0     2.6     27.1     2.25     0.202     7.5  96.3      6.4      5.7    303.6  
 722.400    146.4  72.1  15.3      0.8   1.1   2.0     3.0     26.9     2.25     0.215     8.0  95.5      6.4      5.6    303.9  
 722.600    104.5  72.1  15.5      0.9   1.2   2.0     2.3     28.8     2.22     0.176     8.8  94.4      6.5      5.6    303.9  
 722.800    111.5  72.1  14.7      1.1   1.4   2.0     2.8     25.5     2.27     0.213    10.2  93.7      6.3      5.5    303.6  
 723.000     83.6  72.1  14.6      1.1   1.5   2.0     2.5     31.4     2.17     0.157    11.3  93.5      6.1      5.6    300.5  
 723.200     62.6  72.1  20.7      1.0   1.4   2.0     2.7     39.1     2.04     0.111    11.8  93.5      5.9      5.6    299.9  
 723.400     57.4  72.1  13.1      0.9   1.3   2.0     2.2     39.5     2.04     0.156    10.8  94.8      5.7      5.6    299.2  
 723.600     62.6  72.1  14.3      0.7   1.0   2.0     2.3     40.7     2.01     0.206     9.3  96.0      5.6      5.5    300.5  
 723.800    104.5  72.1  21.8      0.6   0.9   2.0     2.0     39.4     2.04     0.254     8.8  96.6      5.5      5.5    301.9  
 724.000     94.0  72.1  26.8      0.5   0.8   2.0     1.6     41.0     2.01     0.177     7.7  98.1      5.4      5.5    304.2  
 724.200    109.7  72.1  27.0      0.4   0.7   2.0     2.1     41.1     2.01     0.136     7.0  98.6      5.4      5.5    305.0  
 724.400    115.0  72.1  19.8      0.3   0.5   2.0     2.1     35.9     2.10     0.176     6.5  98.4      5.4      5.4    304.8  
 724.600    151.6  72.1  18.8      0.2   0.4   2.0     2.1     42.0     1.99     0.137     6.2  97.8      5.5      5.3    302.8  
 724.800    141.1  72.1  28.0      0.2   0.4   2.0     1.9     36.2     2.09     0.237     6.0  96.8      5.6      5.3    301.0  
 725.000    120.2  72.1  25.7      0.3   0.5   2.0     1.9     39.9     2.03     0.209     6.3  97.7      5.5      5.2    299.2  
 725.200    125.4  72.1  27.6      0.3   0.5   2.0     2.1     40.9     2.01     0.168     6.8  98.8      5.3      5.1    295.9  
 725.400    104.5  72.1  24.7      0.3   0.5   2.0     1.7     38.6     2.05     0.146     7.3  99.7      5.2      5.1    294.7  
 725.600    162.1  72.1  25.5      0.2   0.4   2.0     2.0     35.8     2.10     0.176     7.3  100.2     5.2      5.0    294.6  
 725.800     83.6  72.1  29.4      0.2   0.4   2.0     2.1     33.3     2.14     0.188     7.2  100.0     5.3      5.0    297.3  
 726.000    130.7  72.1  23.3      0.2   0.3   2.0     2.6     36.2     2.09     0.164     6.7  99.7      5.3      4.9    299.3  
 726.200     94.0  72.1  21.2      0.2   0.3   2.0     2.5     30.5     2.19     0.204     6.7  99.4      5.2      4.9    300.4  
 726.400     99.3  72.1  26.3      0.2   0.4   2.0     2.3     30.4     2.19     0.199     6.8  99.1      5.2      4.9    301.8  
 726.600    130.7  72.1  20.6      0.2   0.4   2.0     2.0     32.1     2.16     0.192     7.2  98.6      5.2      4.8    301.0  
 726.800     73.1  72.1  16.1      0.2   0.4   2.0     1.7     30.5     2.19     0.195     7.3  97.6      5.2      4.8    299.4  
 727.000     94.0  72.1  20.0      0.2   0.4   2.0     2.0     31.6     2.17     0.192     7.3  95.4      5.1      4.8    297.8  
 727.200    104.5  72.1  16.3      0.2   0.4   2.0     2.6     31.6     2.17     0.196     7.7  93.5      5.1      4.8    295.2  
 727.400     83.6  72.1  18.2      0.3   0.5   2.0     1.8     31.4     2.17     0.183     7.7  92.6      5.1      4.8    294.1  
 727.600    104.5  72.1  15.9      0.3   0.5   2.0     2.2     35.5     2.10     0.162     7.7  92.1      5.0      4.8    294.1  
 727.800     99.3  72.1  19.6      0.3   0.5   2.0     2.1     32.2     2.16     0.189     7.2  91.9      5.0      4.7    296.8  
 728.000     94.0  72.1  16.1      0.3   0.5   2.0     2.2     29.8     2.20     0.207     7.3  92.1      5.0      4.7    300.5  
 728.200    104.5  72.1  14.6      0.3   0.6   2.0     1.8     31.3     2.17     0.171     7.2  92.9      4.9      4.7    302.0  
