~Version Information
 VERS.                2.0:  CWLS LOG ASCII STANDARD -VERSION 2.0
 WRAP.                 NO:  ONE LINE PER DEPTH STEP
~WELL INFORMATION BLOCK
#MNEM.UNIT       DATA              DESCRIPTION OF MNEMONIC
#---------    -------------            ------------------------
 STRT.FT  97.400                         :START DEPTH
 STOP.FT  1255.400                       :STOP DEPTH
 STEP.FT  0.200                          :STEP    UP_HOLE  
 NULL.    -999.25                        :NULL VALUE
 COMP.    BANNER OIL & GAS LLC           :COMPANY
 WELL.    MARY GREEN 41                                                :WELL
 FLD .     REGULAR                       :FIELD\LOCATION
 LOC .          N/A   N/A                :LOCATION
 CNTY.    ARCHER                         :COUNTY
 STAT.    TEXAS                          :STATE
 CTRY.    USA                            :COUNTRY
 SRVC.    45                             :SERVICE COMPANY
 DATE.    07/31/2015                     :LOG DATE
 API .   42-009-42911                        :API NUMBER
 LIC .    N/A                            :LICENSE NUMBER
~Curve Information Block
#MNEM.UNIT      API CODE     Curve Description
#---------    -------------  ------------------------
 DEPT     .FT        00 001 00 00          :  1  DEPTH   
 GAMMA    .API-GR    00 310 00 00          :  2  GAMMA RAY           
 TEMP     .DEG F     00 660 00 00          :  3  TEMPERATURE         
 POR(NEU) .PERCENT   00 330 00 00          :  4  NEUTRON POROSITY    
 1N       .OHM-M     00 000 00 00          :  5  1N                  
 2N       .OHM-M     00 000 00 00          :  6  2N                  
 CALIPER  .INCH      00 280 00 00          :  7  SHORT ARM CALIPER   
 PHOTO EL .BARNS/E   00 000 00 00          :  8  PHOTO EL            
 POR(DEN) .PERCENT   00 890 00 00          :  9  DENSITY POROSITY    
 DEN(CDL) .G/CC      00 350 00 00          : 10  COMPENSATED DENSITY 
 COMP     .G/CC      00 356 00 00          : 11  DEN COMPENSATION    
 RES(MG)  .OHM-M     00 220 00 00          : 12  MEDIUM GUARD RES    
 SP       .MV        00 010 00 00          : 13  SPON POTENTIAL      
 RES(MI)  .OHM-M     00 120 00 00          : 14  MED INDUCTION RES   
 RES(DI)  .OHM-M     00 120 00 00          : 15  DEEP INDUCTION RES  
 TENSION  .CPS       00 000 00 00          : 16  LINE TENSION        
~Parameter Information Block
#MNEM.UNIT   Information     Description
#---------- ---------------  ------------------------
 FILE.      PROCESSED          :File Type
 FIID.      4000               :File Type Identifier
 VERS.      4.00T              :System Version
 SER .      1                  :System Serial Number
 TRUK.      .67455             :Truck Calibration Number
 TOOL.        2487             :Tool Serial Number
 TIME.      1042               :Time    HrHrMinMin
 LAT .      N/A                :Latitude
 LON .      N/A                :Longitude
 LMF .      K.B.               :Log Measured From
 DMF .      K.B.               :Driller Measured From
 PD  .      G.L.               :Permanent Data
 PDEV.                         :Elevation Permanent Data
 EKB .M                        :Elevation Kelly Bushing
 ELEV.DF                       :Elevation DF
 EGL .M                        :Elevation Ground Level
 DRDP.      1260               :Driller's Depth
 CASD.                         :Casing Diameter
 CASB.      0                  :Casing Bottom
 CASX.      STEEL              :Casing Type
 CAST.      NA                 :Casing Thickness
 TNOC.      20:00              :Time Circulation Stopped
 LOGU.      806                :Logging Unit
 RECB.      J FRANKLIN         :Recorded By
 OSR1.      DIL DEN            :Other Services
 OSR2.      NEUT ML            :Other Services
 OSR3.                         :Other Services
 BS  .IN        6.75           :Bit Size
 MST .      DP                 :Mean Surface Temperature
 TGRD.      NA                 :Temperature Gradiant
 MAGN.      4                  :Magnetic Declination
 MDEN.      2.71               :Density Matrix
 MATR.      LIMESTONE          :Neutron Matrix
 DTMT.      49                 :Delta T Matrix
 DTFL.                         :Delta T Fluid
 MUDS.      PIT                :Mud Sample Source
 MRS .      2.2                :Mud Resistivity
 MTP .      78                 :Mud Temperature
 MFRS.      1.66               :Resistivity Mud Filtrate
 MFTP.                         :Temperature Mud Filtrate
 MCRS.      3.3                :Resistivity Mud Cake
 MCTP.                         :Temperature Mud Cake
 FTYP.      FGM                :Fluid Type
 FD  .LB/G   9.1               :Mud Weight
 DFV .S                        :Fluid Viscosity
 FPH .                         :Fuild PH
 ELCO.      10000              :Electron Cutoff
 CASL.      8.62               :Casing Logger
 LOTD.      1250               :Logger TD
 ARTM.      21:15              :Arrival Time
 DPTM.      23:15              :Departure Time
 RIGN.      RIG 1              :Rig Number
~Other Information
#MNEM.UNIT  Information      Description
#---------- ---------------  ------------------------
# -------------------------- 
~A DEPTH  GAMMA    TEMP  POR(NEU) 1N    2N    CALIPER PHOTO EL POR(DEN) DEN(CDL) COMP  RES(MG)  SP    RES(MI)  RES(DI)  TENSION  
# ...
 790.400    153.3  72.0  22.1      1.1   1.1   6.8     2.6     23.1     2.31     0.040     6.9  85.6      4.2      4.2    443.2  
 790.600    139.4  72.0  24.6      1.3   0.9   6.7     2.3     26.4     2.26     0.021     6.7  84.0      4.2      4.3    432.6  
 790.800    125.4  72.0  26.0      1.3   1.0   6.7     2.2     26.6     2.26     0.023     6.7  82.6      4.2      4.3    423.6  
 791.000    115.0  72.0  25.2      1.4   1.1   6.7     2.1     24.0     2.30     0.045     6.7  80.5      4.3      4.3    399.1  
 791.200    115.0  72.0  30.7      1.5   1.2   6.8     2.1     27.6     2.24     -0.003     6.9  79.0      4.3      4.2    359.9  
 791.400     76.6  72.0  25.3      1.6   1.3   6.7     2.4     26.1     2.26     0.012     6.9  78.6      4.3      4.1    455.1  
 791.600     87.0  72.0  28.1      1.6   1.2   6.7     2.0     25.2     2.28     0.020     7.2  78.6      4.3      4.0    403.7  
 791.800     83.6  72.0  28.5      1.6   1.3   6.8     2.2     28.7     2.22     -0.005     7.2  78.6      4.3      4.0    366.8  
 792.000    108.0  72.0  33.3      1.6   1.3   6.7     2.5     27.6     2.24     0.010     7.3  78.6      4.3      3.9    423.5  
 792.200    108.0  72.0  35.7      1.7   1.4   6.8     2.6     35.1     2.11     -0.036     7.5  77.5      4.3      3.9    386.7  
 792.400    111.5  72.0  32.5      1.7   1.4   6.7     2.2     41.6     2.00     -0.032     7.6  74.9      4.2      3.9    353.6  
 792.600     90.5  72.0  30.5      1.7   1.4   6.7     2.9     41.5     2.00     0.036     8.2  75.1      4.0      3.9    437.8  
 792.800     91.4  71.9  42.9      1.7   1.4   6.8     3.0     39.5     2.03     0.093     8.3  73.5      3.8      3.9    408.8  
 793.000    108.0  72.0  36.9      1.7   1.5   6.8     1.8     44.0     1.96     0.052     8.5  69.5      3.7      3.9    366.0  
 793.200    163.8  71.9  35.8      1.6   1.3   6.8     2.4     44.9     1.94     -0.008     7.8  68.7      3.5      3.9    433.0  
 793.400    118.4  71.9  32.3      1.9   1.5   6.7     2.9     34.9     2.11     0.108     6.7  67.6      3.4      3.9    376.7  
 793.600    142.9  71.9  33.7      2.3   1.8   6.8     2.2     29.7     2.20     0.219     5.8  70.9      3.4      3.9    450.6  
 793.800    135.9  71.9  45.5      1.5   1.0   6.7     1.8     28.3     2.23     0.244     5.0  74.2      3.5      4.0    442.4  
 794.000    101.0  72.0  32.8      1.1   0.5   6.8     1.5     30.1     2.20     0.152     4.4  74.2      3.6      4.0    427.0  
 794.200    101.0  71.9  37.0      0.2   0.3   6.8     1.9     41.2     2.01     -0.026     4.2  76.1      3.6      3.9    419.0  
 794.400     83.6  72.0  35.9      0.2   0.3   7.1     2.1     33.7     2.13     0.079     4.5  75.8      3.7      3.8    376.1  
 794.600     80.1  71.9  33.7      0.2   0.3   8.0     2.7     36.3     2.09     0.139     4.7  77.1      3.7      3.8    345.9  
 794.800     99.3  72.0  33.7      0.2   0.3   9.0     2.2     36.4     2.09     0.244     5.2  77.1      3.7      3.7    421.3  
 795.000     80.1  72.0  41.2      0.2   0.2   9.4     2.1     44.7     1.95     0.165     5.3  78.0      3.6      3.6    364.6  
 795.200     97.5  72.0  36.3      0.2   0.2   9.1     2.3     42.1     1.99     0.156     5.4  78.5      3.6      3.6    425.0  
 795.400     97.5  72.0  34.8      0.1   0.2   8.9     2.3     38.7     2.05     0.159     5.5  79.0      3.6      3.5    366.6  
 795.600     88.8  71.9  32.5      0.1   0.2   8.8     2.1     45.4     1.93     0.082     5.4  79.1      3.7      3.5    438.0  
 795.800    104.5  71.9  31.1      0.1   0.2   9.6     1.8     52.4     1.81     0.056     5.5  83.5      3.7      3.5    409.4  
 796.000    146.4  72.0  47.8      0.2   0.3  10.2     1.5     35.1     2.11     0.230     5.7  171.1     3.7      3.5    357.1  
 796.200     90.5  71.9  34.0      0.2   0.3  10.2     1.2     38.0     2.06     0.098     5.5  220.4     3.7      3.4    429.3  
 796.400     73.1  72.0  31.3      0.3   0.3  10.0     1.0     49.4     1.86     -0.062     5.5  220.6     3.6      3.4    403.2  
 796.600     87.0  71.9  36.2      0.4   0.3   8.8     1.6     45.9     1.92     0.012     5.6  219.9     3.5      3.4    358.9  
 796.800     87.0  72.0  30.3      0.4   0.4   9.0     1.5     42.1     1.99     0.118     5.3  185.9     3.4      3.4    428.2  
 797.000     76.6  71.9  50.5      0.4   0.3   9.2     1.3     48.6     1.88     0.169     5.3  93.9      3.3      3.4    416.8  
 797.200    112.3  71.9  35.3      0.4   0.3   9.2     0.8     68.0     1.55     0.058     5.0  103.1     3.2      3.4    375.9  
 797.400     87.0  71.9  32.1      0.2   0.4   9.4     0.7     69.3     1.52     0.061     4.9  103.8     3.2      3.5    454.3  
 797.600     83.6  71.9  38.9      0.3   0.3   8.8     1.0     66.2     1.58     0.075     4.6  98.4      3.2      3.5    451.0  
 797.800     94.0  71.9  43.6      0.3   0.2   8.5     1.0     56.1     1.75     0.125     4.5  102.1     3.2      3.6    434.3  
 798.000     87.0  71.9  41.3      0.2   0.2   8.7     1.7     60.8     1.67     0.065     4.4  104.3     3.1      3.6    423.8  
 798.200    101.9  71.9  38.7      0.1   0.2   9.2     1.4     60.2     1.68     0.098     4.3  178.5     3.2      3.6    388.4  
 798.400     69.6  71.9  60.9      0.1   0.2  10.1     1.4     72.8     1.46     0.024     4.2  105.7     3.2      3.6    364.5  
 798.600     87.0  71.9  54.7      0.1   0.2  10.6     1.0     72.1     1.48     0.049     4.3  103.5     3.3      3.6    439.6  
 798.800     66.1  71.9  33.5      0.1   0.2  10.8     1.0     64.3     1.61     0.077     4.2  106.4     3.4      3.6    432.9  
 799.000     76.6  71.9  42.4      0.2   0.1  10.9     1.4     48.4     1.88     0.143     4.2  104.9     3.5      3.6    431.2  
 799.200     78.3  71.9  41.6      0.1   0.2  10.6     1.5     45.9     1.93     0.049     4.2  106.1     3.6      3.7    429.7  
 799.400     69.6  71.9  39.9      0.1   0.2  10.6     2.1     52.7     1.81     -0.058     4.5  105.8     3.8      3.7    431.3  
 799.600     59.1  71.9  45.7      0.1   0.2  10.9     2.5     47.1     1.90     0.053     4.5  105.8     3.9      3.8    439.0  
 799.800     97.5  71.9  35.8      0.2   0.3  10.8     2.0     41.5     2.00     0.142     4.7  106.4     4.0      3.9    440.9  
 800.000     90.5  71.9  35.8      0.3   0.3  10.2     1.9     36.2     2.09     0.184     5.0  107.1     4.0      4.0    435.0  
 800.200     78.3  71.9  26.4      0.2   0.3   8.2     2.1     33.6     2.14     0.136     5.2  107.9     4.2      4.2    408.6  
 800.400    101.0  71.9  28.2      0.2   0.3   8.2     1.9     31.0     2.18     0.064     5.1  108.4     4.3      4.4    436.0  
 800.600     94.0  71.9  23.5      0.2   0.4   8.5     2.4     28.7     2.22     -0.009     5.2  109.0     4.4      4.6    426.9  
 800.800    115.0  72.0  23.9      0.4   0.4   8.2     3.3     23.9     2.30     0.002     5.4  110.3     4.5      4.7    423.8  
 801.000     62.6  71.9  27.7      0.4   0.5   7.6     2.8     19.8     2.37     0.035     5.4  110.6     4.6      5.0    419.5  
 801.200     96.6  71.9  25.5      0.4   0.7   7.9     3.1     19.2     2.38     0.044     5.8  110.5     4.7      5.1    416.5  
 801.400     90.5  71.9  22.8      0.5   0.7   8.1     2.5      9.7     2.54     0.128     5.8  111.1     4.8      5.2    420.3  
 801.600    111.5  71.9  24.4      0.8   0.8   8.0     2.8      6.6     2.60     0.171     5.9  123.2     4.9      5.3    421.2  
 801.800     83.6  71.9  24.6      0.7   0.8   7.2     2.4      8.2     2.57     0.105     6.1  112.9     5.1      5.3    415.7  
 802.000     99.3  71.9  15.6      0.7   0.8   7.2     2.3     16.5     2.43     -0.021     6.3  127.3     5.1      5.2    412.2  
 802.200     87.0  71.9  17.8      0.7   0.9   7.3     2.9     12.3     2.50     -0.026     6.1  161.9     5.1      5.2    415.7  
 802.400     94.0  71.9  19.1      1.0   1.0   7.2     3.1     13.6     2.48     -0.064     6.2  189.7     5.2      5.1    415.3  
 802.600     97.5  71.9  15.8      1.0   1.1   7.1     3.4     10.5     2.53     -0.048     6.7  224.8     5.1      5.0    396.8  
