~Version Information
 VERS.                2.0:  CWLS LOG ASCII STANDARD -VERSION 2.0
 WRAP.                 NO:  ONE LINE PER DEPTH STEP
~WELL INFORMATION BLOCK
#MNEM.UNIT       DATA              DESCRIPTION OF MNEMONIC
#---------    -------------            ------------------------
 STRT.FT  97.400                         :START DEPTH
 STOP.FT  1255.400                       :STOP DEPTH
 STEP.FT  0.200                          :STEP    UP_HOLE  
 NULL.    -999.25                        :NULL VALUE
 COMP.    BANNER OIL & GAS LLC           :COMPANY
 WELL.    MARY GREEN 41                                                :WELL
 FLD .     REGULAR                       :FIELD\LOCATION
 LOC .          N/A   N/A                :LOCATION
 CNTY.    ARCHER                         :COUNTY
 STAT.    TEXAS                          :STATE
 CTRY.    USA                            :COUNTRY
 SRVC.    45                             :SERVICE COMPANY
 DATE.    07/31/2015                     :LOG DATE
 API .   42-009-42911                        :API NUMBER
 LIC .    N/A                            :LICENSE NUMBER
~Curve Information Block
#MNEM.UNIT      API CODE     Curve Description
#---------    -------------  ------------------------
 DEPT     .FT        00 001 00 00          :  1  DEPTH   
 GAMMA    .API-GR    00 310 00 00          :  2  GAMMA RAY           
 TEMP     .DEG F     00 660 00 00          :  3  TEMPERATURE         
 POR(NEU) .PERCENT   00 330 00 00          :  4  NEUTRON POROSITY    
 1N       .OHM-M     00 000 00 00          :  5  1N                  
 2N       .OHM-M     00 000 00 00          :  6  2N                  
 CALIPER  .INCH      00 280 00 00          :  7  SHORT ARM CALIPER   
 PHOTO EL .BARNS/E   00 000 00 00          :  8  PHOTO EL            
 POR(DEN) .PERCENT   00 890 00 00          :  9  DENSITY POROSITY    
 DEN(CDL) .G/CC      00 350 00 00          : 10  COMPENSATED DENSITY 
 COMP     .G/CC      00 356 00 00          : 11  DEN COMPENSATION    
 RES(MG)  .OHM-M     00 220 00 00          : 12  MEDIUM GUARD RES    
 SP       .MV        00 010 00 00          : 13  SPON POTENTIAL      
 RES(MI)  .OHM-M     00 120 00 00          : 14  MED INDUCTION RES   
 RES(DI)  .OHM-M     00 120 00 00          : 15  DEEP INDUCTION RES  
 TENSION  .CPS       00 000 00 00          : 16  LINE TENSION        
~Parameter Information Block
#MNEM.UNIT   Information     Description
#---------- ---------------  ------------------------
 FILE.      PROCESSED          :File Type
 FIID.      4000               :File Type Identifier
 VERS.      4.00T              :System Version
 SER .      1                  :System Serial Number
 TRUK.      .67455             :Truck Calibration Number
 TOOL.        2487             :Tool Serial Number
 TIME.      1042               :Time    HrHrMinMin
 LAT .      N/A                :Latitude
 LON .      N/A                :Longitude
 LMF .      K.B.               :Log Measured From
 DMF .      K.B.               :Driller Measured From
 PD  .      G.L.               :Permanent Data
 PDEV.                         :Elevation Permanent Data
 EKB .M                        :Elevation Kelly Bushing
 ELEV.DF                       :Elevation DF
 EGL .M                        :Elevation Ground Level
 DRDP.      1260               :Driller's Depth
 CASD.                         :Casing Diameter
 CASB.      0                  :Casing Bottom
 CASX.      STEEL              :Casing Type
 CAST.      NA                 :Casing Thickness
 TNOC.      20:00              :Time Circulation Stopped
 LOGU.      806                :Logging Unit
 RECB.      J FRANKLIN         :Recorded By
 OSR1.      DIL DEN            :Other Services
 OSR2.      NEUT ML            :Other Services
 OSR3.                         :Other Services
 BS  .IN        6.75           :Bit Size
 MST .      DP                 :Mean Surface Temperature
 TGRD.      NA                 :Temperature Gradiant
 MAGN.      4                  :Magnetic Declination
 MDEN.      2.71               :Density Matrix
 MATR.      LIMESTONE          :Neutron Matrix
 DTMT.      49                 :Delta T Matrix
 DTFL.                         :Delta T Fluid
 MUDS.      PIT                :Mud Sample Source
 MRS .      2.2                :Mud Resistivity
 MTP .      78                 :Mud Temperature
 MFRS.      1.66               :Resistivity Mud Filtrate
 MFTP.                         :Temperature Mud Filtrate
 MCRS.      3.3                :Resistivity Mud Cake
 MCTP.                         :Temperature Mud Cake
 FTYP.      FGM                :Fluid Type
 FD  .LB/G   9.1               :Mud Weight
 DFV .S                        :Fluid Viscosity
 FPH .                         :Fuild PH
 ELCO.      10000              :Electron Cutoff
 CASL.      8.62               :Casing Logger
 LOTD.      1250               :Logger TD
 ARTM.      21:15              :Arrival Time
 DPTM.      23:15              :Departure Time
 RIGN.      RIG 1              :Rig Number
~Other Information
#MNEM.UNIT  Information      Description
#---------- ---------------  ------------------------
# -------------------------- 
~A DEPTH  GAMMA    TEMP  POR(NEU) 1N    2N    CALIPER PHOTO EL POR(DEN) DEN(CDL) COMP  RES(MG)  SP    RES(MI)  RES(DI)  TENSION  
# ...
 244.800     88.8  70.6  26.6      0.1   0.3   2.0     1.9     31.0     2.18     0.280     7.3  168.4     4.7      4.6    261.3  
 245.000     62.6  70.6  24.0      0.1   0.3   2.0     2.1     41.4     2.00     0.150     7.2  140.9     4.7      4.6    261.5  
 245.200    141.1  70.6  26.0      0.1   0.2   2.0     1.9     49.3     1.87     0.069     6.4  112.3     4.6      4.5    258.7  
 245.400    101.0  70.6  31.2      0.1   0.2   2.0     2.0     51.3     1.83     0.107     6.3  127.8     4.4      4.4    254.3  
 245.600     99.3  70.6  30.2      0.1   0.2   2.0     1.5     47.6     1.90     0.198     6.3  225.7     4.4      4.3    252.6  
 245.800     80.1  70.6  33.4      0.1   0.2   2.0     1.5     51.9     1.82     0.143     6.3  186.8     4.3      4.2    250.9  
 246.000     88.8  70.6  30.5      0.1   0.2   2.0     1.8     45.2     1.94     0.159     5.8  222.8     4.3      4.2    252.6  
 246.200     97.5  70.6  26.2      0.1   0.2   2.0     1.6     43.4     1.97     0.115     6.0  214.9     4.2      4.2    253.9  
 246.400    125.4  70.6  44.4      0.1   0.2   2.0     1.5     47.9     1.89     0.060     5.9  220.9     4.2      4.1    255.9  
 246.600     90.5  70.6  36.1      0.1   0.2   2.0     1.9     40.6     2.02     0.149     5.7  168.3     4.2      4.1    260.0  
 246.800     73.1  70.6  42.5      0.1   0.2   2.0     1.8     39.2     2.04     0.192     5.5  149.7     4.2      4.1    261.4  
 247.000     90.5  70.6  36.5      0.1   0.2   2.0     2.0     47.0     1.91     0.124     5.8  149.5     4.2      4.1    262.8  
 247.200     52.1  70.6  34.7      0.1   0.1   2.0     1.8     38.7     2.05     0.227     5.7  190.3     4.2      4.1    261.4  
 247.400    108.0  70.6  35.3      0.1   0.1   2.0     1.7     45.7     1.93     0.131     5.5  185.8     4.2      4.0    257.0  
 247.600     46.9  70.6  32.3      0.1   0.1   2.0     1.9     57.1     1.73     -0.002     5.7  195.2     4.2      4.1    255.0  
 247.800     80.1  70.6  30.2      0.1   0.1   2.0     2.3     55.9     1.75     0.066     5.8  165.5     4.3      4.1    253.5  
 248.000     78.3  70.6  34.8      0.1   0.1   2.0     1.8     52.0     1.82     0.173     5.5  126.4     4.3      4.2    254.1  
 248.200     80.1  70.6  38.4      0.1   0.2   2.0     1.7     47.8     1.89     0.212     5.5  124.6     4.3      4.2    255.0  
 248.400     88.8  70.6  23.0      0.1   0.2   2.0     1.8     42.1     1.99     0.187     5.8  129.1     4.3      4.3    256.1  
 248.600    135.9  70.6  27.9      0.1   0.2   2.0     2.0     46.0     1.92     0.039     5.9  122.0     4.4      4.3    259.4  
 248.800    115.0  70.6  32.9      0.1   0.2   2.0     2.8     41.0     2.01     0.057     5.8  147.6     4.4      4.4    262.1  
 249.000     99.3  70.6  34.5      0.1   0.2   2.0     2.8     23.2     2.31     0.245     5.8  172.0     4.4      4.5    263.6  
 249.200     97.5  70.6  24.8      0.1   0.2   2.0     2.7     23.7     2.30     0.237     6.0  131.5     4.5      4.6    261.7  
 249.400     78.3  70.6  34.2      0.1   0.2   2.0     2.8     37.7     2.07     0.081     5.9  116.8     4.6      4.7    258.9  
 249.600    101.0  70.6  28.4      0.1   0.2   2.0     2.7     37.1     2.07     0.112     5.8  118.5     4.7      4.7    255.5  
 249.800     73.1  70.6  27.2      0.1   0.2   2.0     2.8     32.9     2.15     0.189     6.1  117.2     4.8      4.8    253.7  
 250.000     97.5  70.6  24.2      0.1   0.2   2.0     2.4     30.9     2.18     0.211     6.7  118.4     4.9      4.9    254.7  
 250.200     73.1  70.6  24.8      0.1   0.2   2.0     2.2     27.1     2.25     0.192     6.7  127.4     4.9      5.0    254.8  
 250.400     97.5  70.6  27.6      0.1   0.2   2.0     2.7     29.7     2.20     0.134     6.7  121.0     5.0      5.0    257.1  
 250.600    120.2  70.6  24.7      0.1   0.2   2.0     2.7     25.9     2.27     0.150     6.8  116.6     5.1      5.1    259.3  
 250.800     52.1  70.6  22.2      0.1   0.2   2.0     2.7     21.5     2.34     0.186     7.0  116.8     5.2      5.1    262.1  
 251.000     46.9  70.6  24.5      0.1   0.3   2.0     3.0     19.9     2.37     0.203     7.0  116.1     5.2      5.2    263.2  
 251.200     62.6  70.6  20.0      0.1   0.3   2.0     2.5     18.9     2.39     0.202     7.2  120.7     5.2      5.2    260.6  
 251.400    120.2  70.6  18.9      0.2   0.3   2.0     2.9     21.5     2.34     0.177     7.0  121.2     5.3      5.2    257.7  
 251.600     80.1  70.6  17.5      0.2   0.3   2.0     3.1     22.4     2.33     0.178     7.3  114.7     5.3      5.2    254.1  
 251.800     62.6  70.6  23.7      0.2   0.3   2.0     2.4     20.6     2.36     0.187     7.2  137.4     5.3      5.2    252.0  
 252.000     87.0  70.6  27.7      0.2   0.3   2.0     2.6     19.6     2.37     0.184     7.9  120.9     5.3      5.2    252.6  
 252.200    125.4  70.6  19.2      0.2   0.3   2.0     2.3     20.7     2.36     0.171     7.7  123.8     5.3      5.2    253.2  
 252.400     73.1  70.6  22.6      0.2   0.3   2.0     2.5     17.4     2.41     0.208     7.9  120.1     5.3      5.1    255.1  
 252.600    118.4  70.6  18.1      0.2   0.3   2.0     2.6     22.5     2.33     0.164     7.8  115.7     5.2      5.1    258.1  
 252.800    109.7  70.6  21.8      0.2   0.3   2.0     2.5     23.4     2.31     0.151     7.8  115.8     5.2      5.0    261.1  
 253.000     66.1  70.6  20.5      0.2   0.3   2.0     3.0     24.2     2.30     0.156     7.8  116.1     5.2      5.0    263.1  
 253.200     99.3  70.6  19.8      0.2   0.3   2.0     2.7     25.1     2.28     0.153     7.5  134.5     5.1      5.0    261.4  
 253.400    101.0  70.6  24.6      0.1   0.3   2.0     2.5     25.8     2.27     0.133     7.3  187.0     5.1      5.0    258.8  
 253.600    115.0  70.6  21.3      0.2   0.3   2.0     2.7     25.0     2.28     0.152     7.3  153.2     5.0      4.9    256.1  
 253.800    109.7  70.6  21.9      0.1   0.3   2.0     2.7     23.9     2.30     0.152     6.9  137.0     5.0      4.9    253.9  
 254.000    111.5  70.7  32.6      0.1   0.3   2.0     2.9     21.8     2.34     0.163     6.8  225.8     4.9      4.9    254.4  
 254.200    135.9  70.6  24.7      0.1   0.3   2.0     2.8     22.3     2.33     0.158     6.8  223.0     4.9      4.9    255.0  
 254.400     76.6  70.7  24.0      0.1   0.2   2.0     3.1     17.6     2.41     0.198     6.7  219.8     4.9      4.8    257.0  
 254.600     83.6  70.7  22.1      0.1   0.2   2.0     2.7     17.5     2.41     0.203     6.5  209.0     5.0      4.8    261.0  
 254.800     97.5  70.7  18.0      0.1   0.2   2.0     3.2     22.0     2.33     0.156     6.5  171.4     4.9      4.8    264.1  
 255.000     99.3  70.6  23.0      0.1   0.2   2.0     2.7     20.9     2.35     0.160     6.7  217.0     4.9      4.8    265.8  
 255.200    121.9  70.7  26.8      0.1   0.2   2.0     3.0     19.7     2.37     0.170     6.8  205.3     5.0      4.8    262.7  
 255.400     57.4  70.7  25.3      0.1   0.2   2.0     2.6     22.6     2.32     0.140     6.5  163.5     5.0      4.8    258.6  
 255.600    128.9  70.6  25.3      0.1   0.2   2.0     2.7     19.6     2.37     0.155     6.5  179.6     5.0      4.8    254.8  
 255.800     67.9  70.7  25.4      0.1   0.2   2.0     2.5     14.8     2.46     0.199     6.7  217.9     5.0      4.9    251.8  
 256.000    101.0  70.7  26.1      0.1   0.3   2.0     2.9     21.9     2.34     0.144     7.0  178.5     5.1      4.9    252.3  
 256.200    130.7  70.7  26.5      0.1   0.3   2.0     2.7     14.6     2.46     0.218     7.0  228.0     5.1      4.9    252.7  
 256.400     87.0  70.6  29.7      0.1   0.3   2.0     2.7     18.5     2.39     0.175     7.0  228.4     5.1      5.0    254.0  
 256.600     88.8  70.7  19.0      0.1   0.3   2.0     2.4     19.8     2.37     0.150     7.1  176.2     5.2      5.0    258.6  
 256.800    115.0  70.7  23.1      0.1   0.3   2.0     2.5     24.1     2.30     0.117     7.2  181.4     5.2      5.0    261.3  
 257.000    177.8  70.7  27.4      0.1   0.3   2.0     3.3     16.2     2.43     0.207     7.1  138.2     5.2      5.1    265.5  
