~Version Information
 VERS.                2.0:  CWLS LOG ASCII STANDARD -VERSION 2.0
 WRAP.                 NO:  ONE LINE PER DEPTH STEP
~WELL INFORMATION BLOCK
#MNEM.UNIT       DATA              DESCRIPTION OF MNEMONIC
#---------    -------------            ------------------------
 STRT.FT  97.400                         :START DEPTH
 STOP.FT  1255.400                       :STOP DEPTH
 STEP.FT  0.200                          :STEP    UP_HOLE  
 NULL.    -999.25                        :NULL VALUE
 COMP.    BANNER OIL & GAS LLC           :COMPANY
 WELL.    MARY GREEN 41                                                :WELL
 FLD .     REGULAR                       :FIELD\LOCATION
 LOC .          N/A   N/A                :LOCATION
 CNTY.    ARCHER                         :COUNTY
 STAT.    TEXAS                          :STATE
 CTRY.    USA                            :COUNTRY
 SRVC.    45                             :SERVICE COMPANY
 DATE.    07/31/2015                     :LOG DATE
 API .   42-009-42911                        :API NUMBER
 LIC .    N/A                            :LICENSE NUMBER
~Curve Information Block
#MNEM.UNIT      API CODE     Curve Description
#---------    -------------  ------------------------
 DEPT     .FT        00 001 00 00          :  1  DEPTH   
 GAMMA    .API-GR    00 310 00 00          :  2  GAMMA RAY           
 TEMP     .DEG F     00 660 00 00          :  3  TEMPERATURE         
 POR(NEU) .PERCENT   00 330 00 00          :  4  NEUTRON POROSITY    
 1N       .OHM-M     00 000 00 00          :  5  1N                  
 2N       .OHM-M     00 000 00 00          :  6  2N                  
 CALIPER  .INCH      00 280 00 00          :  7  SHORT ARM CALIPER   
 PHOTO EL .BARNS/E   00 000 00 00          :  8  PHOTO EL            
 POR(DEN) .PERCENT   00 890 00 00          :  9  DENSITY POROSITY    
 DEN(CDL) .G/CC      00 350 00 00          : 10  COMPENSATED DENSITY 
 COMP     .G/CC      00 356 00 00          : 11  DEN COMPENSATION    
 RES(MG)  .OHM-M     00 220 00 00          : 12  MEDIUM GUARD RES    
 SP       .MV        00 010 00 00          : 13  SPON POTENTIAL      
 RES(MI)  .OHM-M     00 120 00 00          : 14  MED INDUCTION RES   
 RES(DI)  .OHM-M     00 120 00 00          : 15  DEEP INDUCTION RES  
 TENSION  .CPS       00 000 00 00          : 16  LINE TENSION        
~Parameter Information Block
#MNEM.UNIT   Information     Description
#---------- ---------------  ------------------------
 FILE.      PROCESSED          :File Type
 FIID.      4000               :File Type Identifier
 VERS.      4.00T              :System Version
 SER .      1                  :System Serial Number
 TRUK.      .67455             :Truck Calibration Number
 TOOL.        2487             :Tool Serial Number
 TIME.      1042               :Time    HrHrMinMin
 LAT .      N/A                :Latitude
 LON .      N/A                :Longitude
 LMF .      K.B.               :Log Measured From
 DMF .      K.B.               :Driller Measured From
 PD  .      G.L.               :Permanent Data
 PDEV.                         :Elevation Permanent Data
 EKB .M                        :Elevation Kelly Bushing
 ELEV.DF                       :Elevation DF
 EGL .M                        :Elevation Ground Level
 DRDP.      1260               :Driller's Depth
 CASD.                         :Casing Diameter
 CASB.      0                  :Casing Bottom
 CASX.      STEEL              :Casing Type
 CAST.      NA                 :Casing Thickness
 TNOC.      20:00              :Time Circulation Stopped
 LOGU.      806                :Logging Unit
 RECB.      J FRANKLIN         :Recorded By
 OSR1.      DIL DEN            :Other Services
 OSR2.      NEUT ML            :Other Services
 OSR3.                         :Other Services
 BS  .IN        6.75           :Bit Size
 MST .      DP                 :Mean Surface Temperature
 TGRD.      NA                 :Temperature Gradiant
 MAGN.      4                  :Magnetic Declination
 MDEN.      2.71               :Density Matrix
 MATR.      LIMESTONE          :Neutron Matrix
 DTMT.      49                 :Delta T Matrix
 DTFL.                         :Delta T Fluid
 MUDS.      PIT                :Mud Sample Source
 MRS .      2.2                :Mud Resistivity
 MTP .      78                 :Mud Temperature
 MFRS.      1.66               :Resistivity Mud Filtrate
 MFTP.                         :Temperature Mud Filtrate
 MCRS.      3.3                :Resistivity Mud Cake
 MCTP.                         :Temperature Mud Cake
 FTYP.      FGM                :Fluid Type
 FD  .LB/G   9.1               :Mud Weight
 DFV .S                        :Fluid Viscosity
 FPH .                         :Fuild PH
 ELCO.      10000              :Electron Cutoff
 CASL.      8.62               :Casing Logger
 LOTD.      1250               :Logger TD
 ARTM.      21:15              :Arrival Time
 DPTM.      23:15              :Departure Time
 RIGN.      RIG 1              :Rig Number
~Other Information
#MNEM.UNIT  Information      Description
#---------- ---------------  ------------------------
# -------------------------- 
~A DEPTH  GAMMA    TEMP  POR(NEU) 1N    2N    CALIPER PHOTO EL POR(DEN) DEN(CDL) COMP  RES(MG)  SP    RES(MI)  RES(DI)  TENSION  
# ...
 480.400    104.5  71.7  31.7      0.6   0.6   2.0     1.2     62.5     1.64     0.094     6.0  151.7     4.0      3.9    278.7  
 480.600     94.0  71.7  34.2      0.6   0.6   2.0     1.0     64.1     1.61     0.088     6.0  177.2     3.9      3.9    278.1  
 480.800     94.0  71.7  33.3      0.5   0.6   2.0     0.8     73.7     1.45     0.033     6.2  187.3     3.8      3.8    280.5  
 481.000    115.0  71.7  30.4      0.4   0.5   2.0     0.8     78.8     1.36     -0.003     6.3  177.9     3.7      3.8    281.7  
 481.200    115.0  71.7  36.9      0.3   0.5   2.0     0.6     79.6     1.35     -0.028     6.0  177.8     3.6      3.8    282.7  
 481.400     94.0  71.7  27.6      0.3   0.4   2.0     0.8     76.3     1.41     0.006     5.7  159.6     3.6      3.8    281.0  
 481.600     83.6  71.7  43.3      0.2   0.4   2.0     1.1     75.6     1.42     0.014     5.3  132.5     3.7      3.7    281.0  
 481.800     94.0  71.7  28.7      0.2   0.3   2.0     1.2     74.7     1.43     0.037     5.5  177.1     3.7      3.7    281.2  
 482.000    146.4  71.7  43.1      0.2   0.3   2.0     0.7     79.7     1.35     -0.017     5.0  197.5     3.7      3.7    278.9  
 482.200    146.4  71.7  36.8      0.3   0.3   2.0     0.6     78.5     1.37     -0.016     5.3  169.6     3.7      3.7    278.1  
 482.400    135.9  71.7  41.1      0.3   0.3   2.0     0.4     77.1     1.39     -0.001     5.2  131.9     3.6      3.7    276.9  
 482.600     73.1  71.7  48.9      0.2   0.3   2.0     0.6     79.5     1.35     -0.022     5.7  123.7     3.6      3.7    276.7  
 482.800     73.1  71.7  37.0      0.2   0.3   2.0     0.7     77.8     1.38     -0.016     5.2  134.3     3.6      3.7    277.2  
 483.000    115.0  71.7  39.8      0.1   0.2   2.0     0.6     78.5     1.37     -0.020     5.0  136.9     3.6      3.7    279.0  
 483.200     78.3  71.7  60.1      0.1   0.2   2.0     0.8     79.2     1.36     -0.033     4.7  140.6     3.6      3.7    280.9  
 483.400     83.6  71.7  40.7      0.1   0.2   2.0     0.6     80.5     1.33     -0.033     5.0  116.1     3.6      3.7    283.6  
 483.600     41.7  71.7  36.3      0.1   0.2   2.0     0.3     80.5     1.33     -0.046     4.7  115.8     3.6      3.8    283.4  
 483.800     67.9  71.7  51.7      0.1   0.2   2.0     0.5     80.1     1.34     -0.030     5.0  128.1     3.6      3.8    282.9  
 484.000     46.9  71.7  51.2      0.1   0.2   2.0     0.6     78.9     1.36     -0.018     4.8  128.5     3.6      3.8    282.0  
 484.200     62.6  71.7  60.7      0.1   0.2   2.0     0.5     78.3     1.37     -0.015     5.0  144.0     3.6      3.9    280.1  
 484.400     67.9  71.7  44.1      0.1   0.2   2.0     0.5     78.9     1.36     -0.018     4.8  146.8     3.6      3.9    278.2  
 484.600     88.8  71.7  60.3      0.1   0.2   2.0     0.2     79.7     1.35     -0.038     4.7  140.9     3.7      3.9    276.1  
 484.800     83.6  71.7  48.1      0.1   0.2   2.0     0.6     76.2     1.41     -0.006     5.0  150.0     3.8      4.0    276.4  
 485.000     73.1  71.7  52.2      0.1   0.2   2.0     1.1     72.6     1.47     0.031     5.0  130.2     3.8      4.0    277.2  
 485.200     52.1  71.7  37.9      0.1   0.2   2.0     1.0     70.8     1.50     0.024     4.8  129.0     3.9      4.0    279.4  
 485.400     41.7  71.7  46.0      0.1   0.2   2.0     1.2     69.9     1.52     0.035     5.0  142.1     4.0      4.1    280.4  
 485.600     57.4  71.7  31.3      0.2   0.2   2.0     0.8     74.0     1.45     0.013     5.2  159.7     4.1      4.1    280.7  
 485.800     94.0  71.7  27.9      0.2   0.3   2.0     0.8     74.0     1.44     0.015     5.2  173.9     4.1      4.1    281.0  
 486.000    115.0  71.7  45.9      0.2   0.3   2.0     0.7     76.9     1.40     -0.012     5.7  171.3     4.1      4.2    279.7  
 486.200     78.3  71.7  35.2      0.2   0.3   2.0     0.7     76.9     1.40     -0.001     5.8  161.5     4.1      4.2    279.5  
 486.400     78.3  71.7  54.3      0.2   0.2   2.0     0.9     76.8     1.40     0.020     5.3  185.0     4.1      4.3    277.7  
 486.600     83.6  71.7  52.2      0.2   0.2   2.0     0.7     78.6     1.37     -0.015     6.0  149.0     4.0      4.4    277.2  
 486.800    198.7  71.7  43.6      0.2   0.2   2.0     0.6     80.2     1.34     -0.033     5.7  155.5     4.0      4.4    276.8  
 487.000     67.9  71.7  38.1      0.2   0.2   2.0     0.6     81.5     1.32     -0.035     5.7  182.3     4.1      4.5    278.2  
 487.200     94.0  71.7  36.6      0.1   0.2   2.0     0.5     81.0     1.33     -0.035     5.3  174.7     4.1      4.6    280.3  
 487.400     41.7  71.7  51.2      0.1   0.2   2.0     0.4     82.4     1.30     -0.050     5.2  185.4     4.2      4.6    281.8  
 487.600     83.6  71.7  46.9      0.1   0.2   2.0     0.9     78.2     1.37     -0.016     5.0  130.7     4.3      4.6    281.6  
 487.800     31.2  71.8  27.2      0.1   0.2   2.0     1.0     73.0     1.46     0.025     5.3  113.0     4.3      4.6    281.6  
 488.000     83.6  71.7  51.6      0.1   0.2   2.0     1.2     68.8     1.53     0.051     5.2  177.1     4.3      4.6    281.4  
 488.200    115.0  71.7  42.1      0.1   0.2   2.0     1.4     68.3     1.54     0.065     5.3  146.3     4.4      4.6    281.5  
 488.400     62.6  71.7  37.7      0.1   0.2   2.0     1.3     70.2     1.51     0.040     5.2  113.4     4.4      4.5    279.2  
 488.600    104.5  71.7  34.1      0.1   0.2   2.0     1.3     67.9     1.55     0.070     5.7  139.6     4.4      4.5    277.6  
 488.800     73.1  71.7  33.7      0.1   0.2   2.0     1.1     70.8     1.50     0.033     5.2  228.2     4.4      4.4    278.0  
 489.000     73.1  71.7  35.7      0.1   0.2   2.0     1.5     68.0     1.55     0.054     5.2  154.1     4.4      4.4    279.4  
 489.200     73.1  71.7  44.6      0.1   0.2   2.0     1.5     67.8     1.55     0.046     5.0  145.5     4.4      4.3    282.8  
 489.400     73.1  71.7  31.5      0.1   0.2   2.0     1.1     65.0     1.60     0.056     5.2  209.7     4.4      4.3    283.0  
 489.600     94.0  71.7  47.0      0.1   0.2   2.0     1.3     58.5     1.71     0.130     5.3  178.5     4.4      4.2    283.1  
 489.800    125.4  71.7  43.2      0.2   0.3   2.0     1.1     66.3     1.58     0.052     5.7  203.2     4.3      4.1    283.3  
 490.000     83.6  71.7  34.3      0.3   0.3   2.0     1.4     70.7     1.50     0.033     5.5  221.9     4.2      4.1    282.6  
 490.200     73.1  71.7  36.4      0.3   0.4   2.0     0.7     72.9     1.46     0.006     5.7  225.3     4.1      4.1    281.2  
 490.400    120.2  71.8  32.3      0.3   0.4   2.0     1.0     75.3     1.42     0.003     5.8  215.3     4.1      4.0    279.4  
 490.600    146.4  71.7  39.2      0.3   0.4   2.0     0.6     78.9     1.36     -0.026     6.0  216.2     4.0      4.0    277.6  
 490.800     73.1  71.7  47.0      0.3   0.4   2.0     0.5     80.7     1.33     -0.021     5.7  199.0     3.9      4.0    277.9  
 491.000     94.0  71.7  32.0      0.3   0.4   2.0     0.5     83.8     1.28     -0.066     6.0  154.0     3.9      4.0    278.2  
 491.200     94.0  71.8  35.0      0.3   0.4   2.0     0.1     84.0     1.27     -0.067     5.7  130.7     3.8      4.0    280.8  
 491.400    109.7  71.7  46.2      0.2   0.2   2.0     0.4     84.4     1.27     -0.060     5.2  188.8     3.7      4.0    283.6  
 491.600     83.6  71.7  63.7      0.1   0.2   2.0     0.2     84.7     1.26     -0.076     5.3  195.1     3.7      4.0    284.0  
 491.800     73.1  71.7  57.9      0.1   0.2   2.0     0.2     84.2     1.27     -0.072     5.0  214.7     3.7      4.0    283.8  
 492.000     46.9  71.8  47.4      0.1   0.1   2.0     0.3     83.0     1.29     -0.062     4.8  174.0     3.7      3.9    283.2  
 492.200     31.2  71.7  41.1      0.1   0.1   2.0     0.6     80.6     1.33     -0.044     4.7  121.4     3.8      3.9    283.1  
 492.400     88.8  71.7  46.1      0.1   0.1   2.0     0.5     79.9     1.34     -0.038     4.5  150.9     3.8      3.9    281.2  
 492.600     52.1  71.8  36.4      0.1   0.1   2.0     0.9     79.4     1.35     -0.018     4.7  167.4     3.8      3.9    279.5  
