~Version Information
 VERS.                2.0:  CWLS LOG ASCII STANDARD -VERSION 2.0
 WRAP.                 NO:  ONE LINE PER DEPTH STEP
~WELL INFORMATION BLOCK
#MNEM.UNIT       DATA              DESCRIPTION OF MNEMONIC
#---------    -------------            ------------------------
 STRT.FT  97.400                         :START DEPTH
 STOP.FT  1255.400                       :STOP DEPTH
 STEP.FT  0.200                          :STEP    UP_HOLE  
 NULL.    -999.25                        :NULL VALUE
 COMP.    BANNER OIL & GAS LLC           :COMPANY
 WELL.    MARY GREEN 41                                                :WELL
 FLD .     REGULAR                       :FIELD\LOCATION
 LOC .          N/A   N/A                :LOCATION
 CNTY.    ARCHER                         :COUNTY
 STAT.    TEXAS                          :STATE
 CTRY.    USA                            :COUNTRY
 SRVC.    45                             :SERVICE COMPANY
 DATE.    07/31/2015                     :LOG DATE
 API .   42-009-42911                        :API NUMBER
 LIC .    N/A                            :LICENSE NUMBER
~Curve Information Block
#MNEM.UNIT      API CODE     Curve Description
#---------    -------------  ------------------------
 DEPT     .FT        00 001 00 00          :  1  DEPTH   
 GAMMA    .API-GR    00 310 00 00          :  2  GAMMA RAY           
 TEMP     .DEG F     00 660 00 00          :  3  TEMPERATURE         
 POR(NEU) .PERCENT   00 330 00 00          :  4  NEUTRON POROSITY    
 1N       .OHM-M     00 000 00 00          :  5  1N                  
 2N       .OHM-M     00 000 00 00          :  6  2N                  
 CALIPER  .INCH      00 280 00 00          :  7  SHORT ARM CALIPER   
 PHOTO EL .BARNS/E   00 000 00 00          :  8  PHOTO EL            
 POR(DEN) .PERCENT   00 890 00 00          :  9  DENSITY POROSITY    
 DEN(CDL) .G/CC      00 350 00 00          : 10  COMPENSATED DENSITY 
 COMP     .G/CC      00 356 00 00          : 11  DEN COMPENSATION    
 RES(MG)  .OHM-M     00 220 00 00          : 12  MEDIUM GUARD RES    
 SP       .MV        00 010 00 00          : 13  SPON POTENTIAL      
 RES(MI)  .OHM-M     00 120 00 00          : 14  MED INDUCTION RES   
 RES(DI)  .OHM-M     00 120 00 00          : 15  DEEP INDUCTION RES  
 TENSION  .CPS       00 000 00 00          : 16  LINE TENSION        
~Parameter Information Block
#MNEM.UNIT   Information     Description
#---------- ---------------  ------------------------
 FILE.      PROCESSED          :File Type
 FIID.      4000               :File Type Identifier
 VERS.      4.00T              :System Version
 SER .      1                  :System Serial Number
 TRUK.      .67455             :Truck Calibration Number
 TOOL.        2487             :Tool Serial Number
 TIME.      1042               :Time    HrHrMinMin
 LAT .      N/A                :Latitude
 LON .      N/A                :Longitude
 LMF .      K.B.               :Log Measured From
 DMF .      K.B.               :Driller Measured From
 PD  .      G.L.               :Permanent Data
 PDEV.                         :Elevation Permanent Data
 EKB .M                        :Elevation Kelly Bushing
 ELEV.DF                       :Elevation DF
 EGL .M                        :Elevation Ground Level
 DRDP.      1260               :Driller's Depth
 CASD.                         :Casing Diameter
 CASB.      0                  :Casing Bottom
 CASX.      STEEL              :Casing Type
 CAST.      NA                 :Casing Thickness
 TNOC.      20:00              :Time Circulation Stopped
 LOGU.      806                :Logging Unit
 RECB.      J FRANKLIN         :Recorded By
 OSR1.      DIL DEN            :Other Services
 OSR2.      NEUT ML            :Other Services
 OSR3.                         :Other Services
 BS  .IN        6.75           :Bit Size
 MST .      DP                 :Mean Surface Temperature
 TGRD.      NA                 :Temperature Gradiant
 MAGN.      4                  :Magnetic Declination
 MDEN.      2.71               :Density Matrix
 MATR.      LIMESTONE          :Neutron Matrix
 DTMT.      49                 :Delta T Matrix
 DTFL.                         :Delta T Fluid
 MUDS.      PIT                :Mud Sample Source
 MRS .      2.2                :Mud Resistivity
 MTP .      78                 :Mud Temperature
 MFRS.      1.66               :Resistivity Mud Filtrate
 MFTP.                         :Temperature Mud Filtrate
 MCRS.      3.3                :Resistivity Mud Cake
 MCTP.                         :Temperature Mud Cake
 FTYP.      FGM                :Fluid Type
 FD  .LB/G   9.1               :Mud Weight
 DFV .S                        :Fluid Viscosity
 FPH .                         :Fuild PH
 ELCO.      10000              :Electron Cutoff
 CASL.      8.62               :Casing Logger
 LOTD.      1250               :Logger TD
 ARTM.      21:15              :Arrival Time
 DPTM.      23:15              :Departure Time
 RIGN.      RIG 1              :Rig Number
~Other Information
#MNEM.UNIT  Information      Description
#---------- ---------------  ------------------------
# -------------------------- 
~A DEPTH  GAMMA    TEMP  POR(NEU) 1N    2N    CALIPER PHOTO EL POR(DEN) DEN(CDL) COMP  RES(MG)  SP    RES(MI)  RES(DI)  TENSION  
# ...
1248.400   -999.3  -999.3 -999.3   -999.3 -999.3 -999.3  -999.3   -999.3   -999.25  -999.250  -999.3  -999.3     4.0      3.7    373.8  
1248.600   -999.3  -999.3 -999.3   -999.3 -999.3 -999.3  -999.3   -999.3   -999.25  -999.250  -999.3  -999.3     4.0      3.7    375.4  
1248.800   -999.3  -999.3 -999.3   -999.3 -999.3 -999.3  -999.3   -999.3   -999.25  -999.250  -999.3  -999.3     4.0      3.7    376.9  
1249.000   -999.3  -999.3 -999.3   -999.3 -999.3 -999.3  -999.3   -999.3   -999.25  -999.250  -999.3  -999.3     3.9      3.6    379.3  
1249.200   -999.3  -999.3 -999.3   -999.3 -999.3 -999.3  -999.3   -999.3   -999.25  -999.250  -999.3  -999.3     3.8      3.6    379.0  
1249.400   -999.3  -999.3 -999.3   -999.3 -999.3 -999.3  -999.3   -999.3   -999.25  -999.250  -999.3  -999.3     3.8      3.6    374.9  
1249.600   -999.3  -999.3 -999.3   -999.3 -999.3 -999.3  -999.3   -999.3   -999.25  -999.250  -999.3  -999.3     3.7      3.6    372.0  
1249.800   -999.3  -999.3 -999.3   -999.3 -999.3 -999.3  -999.3   -999.3   -999.25  -999.250  -999.3  -999.3     3.7      3.5    372.8  
1250.000   -999.3  -999.3 -999.3   -999.3 -999.3 -999.3  -999.3   -999.3   -999.25  -999.250  -999.3  -999.3     3.6      3.5    375.2  
1250.200   -999.3  -999.3 -999.3   -999.3 -999.3 -999.3  -999.3   -999.3   -999.25  -999.250  -999.3  -999.3     3.5      3.5    375.6  
1250.400   -999.3  -999.3 -999.3   -999.3 -999.3 -999.3  -999.3   -999.3   -999.25  -999.250  -999.3  -999.3     3.5      3.4    376.6  
1250.600   -999.3  -999.3 -999.3   -999.3 -999.3 -999.3  -999.3   -999.3   -999.25  -999.250  -999.3  -999.3     3.5      3.4    380.5  
1250.800   -999.3  -999.3 -999.3   -999.3 -999.3 -999.3  -999.3   -999.3   -999.25  -999.250  -999.3  -999.3     3.5      3.4    385.7  
1251.000   -999.3  -999.3 -999.3   -999.3 -999.3 -999.3  -999.3   -999.3   -999.25  -999.250  -999.3  -999.3     3.5      3.4    388.2  
1251.200   -999.3  -999.3 -999.3   -999.3 -999.3 -999.3  -999.3   -999.3   -999.25  -999.250  -999.3  -999.3     3.5      3.4    385.7  
1251.400   -999.3  -999.3 -999.3   -999.3 -999.3 -999.3  -999.3   -999.3   -999.25  -999.250  -999.3  -999.3     3.5      3.3    382.5  
1251.600   -999.3  -999.3 -999.3   -999.3 -999.3 -999.3  -999.3   -999.3   -999.25  -999.250  -999.3  -999.3     3.5      3.3    381.6  
1251.800   -999.3  -999.3 -999.3   -999.3 -999.3 -999.3  -999.3   -999.3   -999.25  -999.250  -999.3  -999.3     3.5      3.3    382.4  
1252.000   -999.3  -999.3 -999.3   -999.3 -999.3 -999.3  -999.3   -999.3   -999.25  -999.250  -999.3  -999.3     3.5      3.4    384.2  
1252.200   -999.3  -999.3 -999.3   -999.3 -999.3 -999.3  -999.3   -999.3   -999.25  -999.250  -999.3  -999.3     3.5      3.4    384.1  
1252.400   -999.3  -999.3 -999.3   -999.3 -999.3 -999.3  -999.3   -999.3   -999.25  -999.250  -999.3  -999.3     3.5      3.5    386.1  
1252.600   -999.3  -999.3 -999.3   -999.3 -999.3 -999.3  -999.3   -999.3   -999.25  -999.250  -999.3  -999.3     3.5      3.5    389.8  
1252.800   -999.3  -999.3 -999.3   -999.3 -999.3 -999.3  -999.3   -999.3   -999.25  -999.250  -999.3  -999.3     3.6      3.6    394.9  
1253.000   -999.3  -999.3 -999.3   -999.3 -999.3 -999.3  -999.3   -999.3   -999.25  -999.250  -999.3  -999.3     3.6      3.7    396.9  
1253.200   -999.3  -999.3 -999.3   -999.3 -999.3 -999.3  -999.3   -999.3   -999.25  -999.250  -999.3  -999.3     3.7      3.7    393.5  
1253.400   -999.3  -999.3 -999.3   -999.3 -999.3 -999.3  -999.3   -999.3   -999.25  -999.250  -999.3  -999.3     3.8      3.7    387.7  
1253.600   -999.3  -999.3 -999.3   -999.3 -999.3 -999.3  -999.3   -999.3   -999.25  -999.250  -999.3  -999.3     3.9      3.7    386.2  
1253.800   -999.3  -999.3 -999.3   -999.3 -999.3 -999.3  -999.3   -999.3   -999.25  -999.250  -999.3  -999.3     4.0      3.7    384.1  
1254.000   -999.3  -999.3 -999.3   -999.3 -999.3 -999.3  -999.3   -999.3   -999.25  -999.250  -999.3  -999.3     4.0      3.7    380.9  
1254.200   -999.3  -999.3 -999.3   -999.3 -999.3 -999.3  -999.3   -999.3   -999.25  -999.250  -999.3  -999.3     4.1      3.7    388.1  
1254.400   -999.3  -999.3 -999.3   -999.3 -999.3 -999.3  -999.3   -999.3   -999.25  -999.250  -999.3  -999.3     4.2   -999.3    397.0  
1254.600   -999.3  -999.3 -999.3   -999.3 -999.3 -999.3  -999.3   -999.3   -999.25  -999.250  -999.3  -999.3     4.2   -999.3    388.1  
1254.800   -999.3  -999.3 -999.3   -999.3 -999.3 -999.3  -999.3   -999.3   -999.25  -999.250  -999.3  -999.3     4.2   -999.3    364.1  
1255.000   -999.3  -999.3 -999.3   -999.3 -999.3 -999.3  -999.3   -999.3   -999.25  -999.250  -999.3  -999.3     4.2   -999.3    335.5  
1255.200   -999.3  -999.3 -999.3   -999.3 -999.3 -999.3  -999.3   -999.3   -999.25  -999.250  -999.3  -999.3     4.2   -999.3    301.9  
1255.400   -999.3  -999.3 -999.3   -999.3 -999.3 -999.3  -999.3   -999.3   -999.25  -999.250  -999.3  -999.3     4.2   -999.3    271.2  
