~Version Information
 VERS.                2.0:  CWLS LOG ASCII STANDARD -VERSION 2.0
 WRAP.                 NO:  ONE LINE PER DEPTH STEP
~WELL INFORMATION BLOCK
#MNEM.UNIT       DATA              DESCRIPTION OF MNEMONIC
#---------    -------------            ------------------------
 STRT.FT  97.400                         :START DEPTH
 STOP.FT  1255.400                       :STOP DEPTH
 STEP.FT  0.200                          :STEP    UP_HOLE  
 NULL.    -999.25                        :NULL VALUE
 COMP.    BANNER OIL & GAS LLC           :COMPANY
 WELL.    MARY GREEN 41                                                :WELL
 FLD .     REGULAR                       :FIELD\LOCATION
 LOC .          N/A   N/A                :LOCATION
 CNTY.    ARCHER                         :COUNTY
 STAT.    TEXAS                          :STATE
 CTRY.    USA                            :COUNTRY
 SRVC.    45                             :SERVICE COMPANY
 DATE.    07/31/2015                     :LOG DATE
 API .   42-009-42911                        :API NUMBER
 LIC .    N/A                            :LICENSE NUMBER
~Curve Information Block
#MNEM.UNIT      API CODE     Curve Description
#---------    -------------  ------------------------
 DEPT     .FT        00 001 00 00          :  1  DEPTH   
 GAMMA    .API-GR    00 310 00 00          :  2  GAMMA RAY           
 TEMP     .DEG F     00 660 00 00          :  3  TEMPERATURE         
 POR(NEU) .PERCENT   00 330 00 00          :  4  NEUTRON POROSITY    
 1N       .OHM-M     00 000 00 00          :  5  1N                  
 2N       .OHM-M     00 000 00 00          :  6  2N                  
 CALIPER  .INCH      00 280 00 00          :  7  SHORT ARM CALIPER   
 PHOTO EL .BARNS/E   00 000 00 00          :  8  PHOTO EL            
 POR(DEN) .PERCENT   00 890 00 00          :  9  DENSITY POROSITY    
 DEN(CDL) .G/CC      00 350 00 00          : 10  COMPENSATED DENSITY 
 COMP     .G/CC      00 356 00 00          : 11  DEN COMPENSATION    
 RES(MG)  .OHM-M     00 220 00 00          : 12  MEDIUM GUARD RES    
 SP       .MV        00 010 00 00          : 13  SPON POTENTIAL      
 RES(MI)  .OHM-M     00 120 00 00          : 14  MED INDUCTION RES   
 RES(DI)  .OHM-M     00 120 00 00          : 15  DEEP INDUCTION RES  
 TENSION  .CPS       00 000 00 00          : 16  LINE TENSION        
~Parameter Information Block
#MNEM.UNIT   Information     Description
#---------- ---------------  ------------------------
 FILE.      PROCESSED          :File Type
 FIID.      4000               :File Type Identifier
 VERS.      4.00T              :System Version
 SER .      1                  :System Serial Number
 TRUK.      .67455             :Truck Calibration Number
 TOOL.        2487             :Tool Serial Number
 TIME.      1042               :Time    HrHrMinMin
 LAT .      N/A                :Latitude
 LON .      N/A                :Longitude
 LMF .      K.B.               :Log Measured From
 DMF .      K.B.               :Driller Measured From
 PD  .      G.L.               :Permanent Data
 PDEV.                         :Elevation Permanent Data
 EKB .M                        :Elevation Kelly Bushing
 ELEV.DF                       :Elevation DF
 EGL .M                        :Elevation Ground Level
 DRDP.      1260               :Driller's Depth
 CASD.                         :Casing Diameter
 CASB.      0                  :Casing Bottom
 CASX.      STEEL              :Casing Type
 CAST.      NA                 :Casing Thickness
 TNOC.      20:00              :Time Circulation Stopped
 LOGU.      806                :Logging Unit
 RECB.      J FRANKLIN         :Recorded By
 OSR1.      DIL DEN            :Other Services
 OSR2.      NEUT ML            :Other Services
 OSR3.                         :Other Services
 BS  .IN        6.75           :Bit Size
 MST .      DP                 :Mean Surface Temperature
 TGRD.      NA                 :Temperature Gradiant
 MAGN.      4                  :Magnetic Declination
 MDEN.      2.71               :Density Matrix
 MATR.      LIMESTONE          :Neutron Matrix
 DTMT.      49                 :Delta T Matrix
 DTFL.                         :Delta T Fluid
 MUDS.      PIT                :Mud Sample Source
 MRS .      2.2                :Mud Resistivity
 MTP .      78                 :Mud Temperature
 MFRS.      1.66               :Resistivity Mud Filtrate
 MFTP.                         :Temperature Mud Filtrate
 MCRS.      3.3                :Resistivity Mud Cake
 MCTP.                         :Temperature Mud Cake
 FTYP.      FGM                :Fluid Type
 FD  .LB/G   9.1               :Mud Weight
 DFV .S                        :Fluid Viscosity
 FPH .                         :Fuild PH
 ELCO.      10000              :Electron Cutoff
 CASL.      8.62               :Casing Logger
 LOTD.      1250               :Logger TD
 ARTM.      21:15              :Arrival Time
 DPTM.      23:15              :Departure Time
 RIGN.      RIG 1              :Rig Number
~Other Information
#MNEM.UNIT  Information      Description
#---------- ---------------  ------------------------
# -------------------------- 
~A DEPTH  GAMMA    TEMP  POR(NEU) 1N    2N    CALIPER PHOTO EL POR(DEN) DEN(CDL) COMP  RES(MG)  SP    RES(MI)  RES(DI)  TENSION  
# ...
1100.400     17.3  72.4  14.7      0.5   0.3   6.2     2.1     24.3     2.29     0.021     3.7  162.5     0.8      0.7    337.1  
1100.600     10.3  72.4  13.6      0.7   0.3   6.2     1.9     27.6     2.24     0.012     3.2  162.7     0.8      0.8    339.9  
1100.800     13.8  72.4  18.6      1.0   0.5   6.2     1.9     23.0     2.32     0.055     3.2  163.3     0.8      0.8    341.0  
1101.000     10.3  72.4  20.1      0.8   0.5   6.1     1.9     23.0     2.32     0.049     3.1  164.2     0.9      0.8    339.7  
1101.200     17.3  72.4  14.0      1.5   1.0   6.2     1.3     22.6     2.32     0.026     3.6  166.2     0.9      0.9    334.6  
1101.400     36.4  72.4  13.1      2.0   1.8   6.2     1.9     26.2     2.26     -0.003     4.1  167.3     0.9      0.9    329.3  
1101.600     17.3  72.4  17.3      2.0   1.9   6.2     1.5     17.1     2.42     0.024     4.4  167.5     0.9      0.9    325.4  
1101.800     34.7  72.4  14.6      1.8   1.7   6.2     2.8     16.9     2.42     0.004     4.7  167.8     1.0      0.9    326.9  
1102.000     34.7  72.4  14.0      1.6   1.4   6.2     3.0     19.3     2.38     -0.025     4.7  168.9     1.0      1.0    329.8  
1102.200     31.2  72.4  18.8      1.9   1.7   6.2     2.8     10.1     2.54     0.078     4.7  172.1     1.1      1.0    332.1  
1102.400     55.6  72.4  13.0      2.3   2.1   6.1     2.8     16.0     2.44     0.047     4.8  176.1     1.1      1.0    336.3  
1102.600     66.1  72.4  17.7      2.3   2.3   6.2     2.6     19.3     2.38     0.045     5.0  181.1     1.1      1.0    338.6  
1102.800    104.5  72.4  19.1      2.3   2.3   6.2     2.6     18.5     2.39     0.057     5.3  184.8     1.2      1.0    339.2  
1103.000     97.5  72.4  16.3      2.1   2.1   6.2     2.9     18.9     2.39     0.047     5.5  185.7     1.2      1.0    337.8  
1103.200     83.6  72.4  18.0      1.9   1.9   6.2     2.1     20.9     2.35     0.036     5.2  185.0     1.2      1.0    332.0  
1103.400     78.3  72.4  14.8      2.0   2.0   6.2     1.9     20.8     2.35     0.029     5.3  181.1     1.2      1.0    329.2  
1103.600     48.7  72.4  16.6      2.0   2.0   6.2     2.3     20.0     2.37     0.043     5.2  176.9     1.2      1.0    326.4  
1103.800     52.1  72.4  16.3      1.9   2.0   6.2     2.0     21.8     2.34     0.046     4.9  174.1     1.2      1.0    325.5  
1104.000     52.1  72.4  15.7      1.9   1.9   6.1     1.5     23.0     2.32     0.038     5.2  170.7     1.1      1.0    326.9  
1104.200     46.9  72.4  15.2      2.0   2.0   6.2     1.7     22.6     2.32     0.052     5.2  168.9     1.1      0.9    331.3  
1104.400     34.7  72.4  14.4      2.1   2.0   6.1     1.6     23.7     2.31     0.042     5.5  167.7     1.1      0.9    336.8  
1104.600     31.2  72.4  15.8      1.9   2.0   6.1     1.7     25.1     2.28     0.037     5.8  165.4     1.1      0.9    341.4  
1104.800     20.7  72.4  13.8      1.9   2.0   6.2     1.6     22.3     2.33     0.059     6.0  162.6     1.0      0.9    343.1  
1105.000     23.4  72.4  14.4      1.9   2.0   6.2     1.2     25.5     2.27     0.025     6.1  160.2     1.0      0.8    339.2  
1105.200     13.8  72.4  13.7      1.8   2.0   6.1     1.3     26.0     2.27     0.017     6.1  158.0     1.0      0.8    334.1  
1105.400     38.2  72.4  16.2      1.7   1.9   6.2     1.6     26.7     2.25     0.019     5.7  157.5     1.0      0.8    330.6  
1105.600     38.2  72.4  14.1      1.7   1.8   6.2     1.8     22.2     2.33     0.062     5.5  157.5     0.9      0.8    328.8  
1105.800     36.4  72.4  13.8      1.7   1.8   6.2     1.6     26.7     2.25     0.034     5.5  157.5     0.9      0.8    328.3  
1106.000     34.7  72.4  14.9      1.8   1.9   6.2     1.4     26.6     2.26     0.021     5.4  157.5     0.9      0.8    329.4  
1106.200     13.8  72.4  17.0      1.8   1.9   6.1     1.9     24.9     2.28     0.041     5.5  157.5     0.9      0.8    331.5  
1106.400     20.7  72.4  14.9      1.7   1.8   6.2     1.9     22.5     2.33     0.048     5.2  157.5     0.9      0.8    337.5  
1106.600     31.2  72.4  13.7      1.5   1.5   6.2     1.8     22.2     2.33     0.043     4.7  157.6     0.9      0.8    341.4  
1106.800     17.3  72.4  14.4      1.4   1.3   6.2     1.8     19.5     2.38     0.056     4.4  158.5     0.9      0.8    343.1  
1107.000     20.7  72.4  16.2      1.4   1.3   6.2     2.0     19.0     2.38     0.063     4.1  160.5     0.9      0.8    341.0  
1107.200     41.7  72.4  19.4      1.6   1.4   6.2     2.0     16.3     2.43     0.061     3.7  162.8     1.0      0.8    335.7  
1107.400     52.1  72.4  16.7      1.8   1.7   6.1     1.9     19.9     2.37     0.021     3.8  165.9     1.0      0.8    331.1  
1107.600     24.2  72.4  16.9      1.9   1.8   6.2     2.7     20.3     2.36     0.023     4.0  169.7     1.0      0.8    328.2  
1107.800     41.7  72.4  18.9      1.8   1.7   6.2     2.6     19.6     2.37     0.021     4.4  172.1     1.0      0.8    326.8  
1108.000     62.6  72.4  14.9      1.8   1.6   6.1     2.4     21.3     2.35     0.019     4.7  174.0     1.0      0.8    328.0  
1108.200     54.8  72.4  13.9      1.6   1.6   6.2     2.4     26.0     2.27     -0.005     4.9  175.0     1.0      0.8    329.6  
1108.400     41.7  72.4  15.5      1.7   1.8   6.2     2.0     23.7     2.30     0.027     5.2  172.7     1.0      0.8    333.6  
1108.600     34.7  72.4  16.8      1.8   1.9   6.2     1.9     22.9     2.32     0.078     5.4  168.9     1.0      0.8    338.8  
1108.800     24.2  72.4  18.5      1.8   1.7   6.1     1.8     25.2     2.28     0.064     5.5  166.6     1.0      0.8    344.7  
1109.000     31.2  72.4  18.7      1.5   1.3   6.2     1.2     26.1     2.26     0.035     5.5  164.4     1.0      0.8    345.7  
1109.200     24.2  72.4  18.4      1.6   1.5   6.2     1.5     28.4     2.22     0.020     5.2  161.7     1.0      0.9    340.6  
1109.400     45.2  72.4  15.0      1.6   1.5   6.2     1.4     27.4     2.24     0.016     5.2  159.7     1.0      0.9    334.7  
1109.600     12.9  72.4  16.9      1.7   1.5   6.1     1.5     27.4     2.24     0.016     5.1  158.3     0.9      0.9    328.8  
1109.800     13.8  72.4  16.8      1.7   1.6   6.2     1.5     23.7     2.30     0.036     5.2  157.6     0.9      0.9    328.1  
1110.000      3.3  72.4  14.0      1.7   1.6   6.1     1.6     22.1     2.33     0.022     5.1  157.5     0.9      0.9    328.7  
1110.200     12.9  72.4  13.4      1.7   1.5   6.2     1.7     25.8     2.27     -0.026     4.9  157.5     0.9      0.9    330.6  
1110.400      3.3  72.4  15.9      1.4   1.2   6.2     3.0     25.8     2.27     -0.028     4.2  157.5     0.9      0.8    335.4  
1110.600     17.3  72.4  13.9      1.2   0.8   6.2     3.0     20.7     2.36     0.037     3.8  157.6     0.9      0.8    343.8  
1110.800     20.7  72.4  17.0      1.1   0.7   6.2     2.5     23.0     2.32     0.057     3.4  159.4     0.9      0.8    348.5  
1111.000     28.6  72.4  20.9      1.1   0.7   6.2     1.6     24.7     2.29     0.056     3.5  161.8     0.9      0.8    348.9  
1111.200     34.7  72.4  14.7      1.8   1.4   6.2     1.7     24.8     2.29     0.054     4.0  164.1     1.0      0.8    343.9  
1111.400     52.1  72.4  16.8      2.0   1.9   6.2     1.9     27.7     2.24     0.019     4.2  164.4     0.9      0.8    335.9  
1111.600     34.7  72.4  16.9      1.9   1.8   6.2     2.3     24.7     2.29     0.026     4.8  164.0     0.9      0.8    330.7  
1111.800     36.4  72.4  17.0      1.8   1.7   6.2     1.5     27.8     2.23     0.008     5.2  162.2     0.9      0.7    329.4  
1112.000     20.7  72.4  14.7      1.6   1.6   6.2     1.7     23.7     2.30     0.039     5.1  160.2     0.9      0.7    331.6  
1112.200     45.2  72.4  19.4      1.7   1.6   6.2     1.8     27.4     2.24     0.022     5.1  159.1     0.9      0.7    334.5  
1112.400      6.8  72.4  19.0      1.8   1.6   6.2     1.8     25.3     2.28     0.035     5.2  159.3     0.9      0.7    340.4  
1112.600     26.0  72.4  17.5      1.9   1.7   6.2     2.0     25.5     2.27     0.039     5.3  158.7     0.9      0.7    345.6  
