~Version Information
 VERS.                2.0:  CWLS LOG ASCII STANDARD -VERSION 2.0
 WRAP.                 NO:  ONE LINE PER DEPTH STEP
~WELL INFORMATION BLOCK
#MNEM.UNIT       DATA              DESCRIPTION OF MNEMONIC
#---------    -------------            ------------------------
 STRT.FT  97.400                         :START DEPTH
 STOP.FT  1255.400                       :STOP DEPTH
 STEP.FT  0.200                          :STEP    UP_HOLE  
 NULL.    -999.25                        :NULL VALUE
 COMP.    BANNER OIL & GAS LLC           :COMPANY
 WELL.    MARY GREEN 41                                                :WELL
 FLD .     REGULAR                       :FIELD\LOCATION
 LOC .          N/A   N/A                :LOCATION
 CNTY.    ARCHER                         :COUNTY
 STAT.    TEXAS                          :STATE
 CTRY.    USA                            :COUNTRY
 SRVC.    45                             :SERVICE COMPANY
 DATE.    07/31/2015                     :LOG DATE
 API .   42-009-42911                        :API NUMBER
 LIC .    N/A                            :LICENSE NUMBER
~Curve Information Block
#MNEM.UNIT      API CODE     Curve Description
#---------    -------------  ------------------------
 DEPT     .FT        00 001 00 00          :  1  DEPTH   
 GAMMA    .API-GR    00 310 00 00          :  2  GAMMA RAY           
 TEMP     .DEG F     00 660 00 00          :  3  TEMPERATURE         
 POR(NEU) .PERCENT   00 330 00 00          :  4  NEUTRON POROSITY    
 1N       .OHM-M     00 000 00 00          :  5  1N                  
 2N       .OHM-M     00 000 00 00          :  6  2N                  
 CALIPER  .INCH      00 280 00 00          :  7  SHORT ARM CALIPER   
 PHOTO EL .BARNS/E   00 000 00 00          :  8  PHOTO EL            
 POR(DEN) .PERCENT   00 890 00 00          :  9  DENSITY POROSITY    
 DEN(CDL) .G/CC      00 350 00 00          : 10  COMPENSATED DENSITY 
 COMP     .G/CC      00 356 00 00          : 11  DEN COMPENSATION    
 RES(MG)  .OHM-M     00 220 00 00          : 12  MEDIUM GUARD RES    
 SP       .MV        00 010 00 00          : 13  SPON POTENTIAL      
 RES(MI)  .OHM-M     00 120 00 00          : 14  MED INDUCTION RES   
 RES(DI)  .OHM-M     00 120 00 00          : 15  DEEP INDUCTION RES  
 TENSION  .CPS       00 000 00 00          : 16  LINE TENSION        
~Parameter Information Block
#MNEM.UNIT   Information     Description
#---------- ---------------  ------------------------
 FILE.      PROCESSED          :File Type
 FIID.      4000               :File Type Identifier
 VERS.      4.00T              :System Version
 SER .      1                  :System Serial Number
 TRUK.      .67455             :Truck Calibration Number
 TOOL.        2487             :Tool Serial Number
 TIME.      1042               :Time    HrHrMinMin
 LAT .      N/A                :Latitude
 LON .      N/A                :Longitude
 LMF .      K.B.               :Log Measured From
 DMF .      K.B.               :Driller Measured From
 PD  .      G.L.               :Permanent Data
 PDEV.                         :Elevation Permanent Data
 EKB .M                        :Elevation Kelly Bushing
 ELEV.DF                       :Elevation DF
 EGL .M                        :Elevation Ground Level
 DRDP.      1260               :Driller's Depth
 CASD.                         :Casing Diameter
 CASB.      0                  :Casing Bottom
 CASX.      STEEL              :Casing Type
 CAST.      NA                 :Casing Thickness
 TNOC.      20:00              :Time Circulation Stopped
 LOGU.      806                :Logging Unit
 RECB.      J FRANKLIN         :Recorded By
 OSR1.      DIL DEN            :Other Services
 OSR2.      NEUT ML            :Other Services
 OSR3.                         :Other Services
 BS  .IN        6.75           :Bit Size
 MST .      DP                 :Mean Surface Temperature
 TGRD.      NA                 :Temperature Gradiant
 MAGN.      4                  :Magnetic Declination
 MDEN.      2.71               :Density Matrix
 MATR.      LIMESTONE          :Neutron Matrix
 DTMT.      49                 :Delta T Matrix
 DTFL.                         :Delta T Fluid
 MUDS.      PIT                :Mud Sample Source
 MRS .      2.2                :Mud Resistivity
 MTP .      78                 :Mud Temperature
 MFRS.      1.66               :Resistivity Mud Filtrate
 MFTP.                         :Temperature Mud Filtrate
 MCRS.      3.3                :Resistivity Mud Cake
 MCTP.                         :Temperature Mud Cake
 FTYP.      FGM                :Fluid Type
 FD  .LB/G   9.1               :Mud Weight
 DFV .S                        :Fluid Viscosity
 FPH .                         :Fuild PH
 ELCO.      10000              :Electron Cutoff
 CASL.      8.62               :Casing Logger
 LOTD.      1250               :Logger TD
 ARTM.      21:15              :Arrival Time
 DPTM.      23:15              :Departure Time
 RIGN.      RIG 1              :Rig Number
~Other Information
#MNEM.UNIT  Information      Description
#---------- ---------------  ------------------------
# -------------------------- 
~A DEPTH  GAMMA    TEMP  POR(NEU) 1N    2N    CALIPER PHOTO EL POR(DEN) DEN(CDL) COMP  RES(MG)  SP    RES(MI)  RES(DI)  TENSION  
  97.400   -999.3  -999.3 -999.3   -999.3 -999.3 -999.3  -999.3   -999.3   -999.25  -999.250  -999.3  -999.3  -999.3   -999.3    240.3  
  97.600   -999.3  -999.3 -999.3   -999.3 -999.3 -999.3  -999.3   -999.3   -999.25  -999.250  -999.3  -999.3  -999.3   -999.3    240.3  
  97.800   -999.3  -999.3 -999.3   -999.3 -999.3 -999.3  -999.3   -999.3   -999.25  -999.250  -999.3  -999.3  -999.3   -999.3    240.3  
  98.000   -999.3  -999.3 -999.3   -999.3 -999.3 -999.3  -999.3   -999.3   -999.25  -999.250  -999.3  -999.3  -999.3   -999.3    240.3  
  98.200   -999.3  -999.3 -999.3   -999.3 -999.3 -999.3  -999.3   -999.3   -999.25  -999.250  -999.3  -999.3  -999.3   -999.3    240.3  
  98.400    117.0  -999.3 -999.3   -999.3 -999.3 -999.3  -999.3   -999.3   -999.25  -999.250  -999.3  -999.3  -999.3   -999.3    240.3  
  98.600    107.1  -999.3 -999.3   -999.3 -999.3 -999.3  -999.3   -999.3   -999.25  -999.250  -999.3  -999.3  -999.3   -999.3    240.3  
  98.800     57.4  -999.3 -999.3   -999.3 -999.3 -999.3  -999.3   -999.3   -999.25  -999.250  -999.3  -999.3  -999.3   -999.3    240.3  
  99.000     97.5  -999.3 -999.3   -999.3 -999.3 -999.3  -999.3   -999.3   -999.25  -999.250  -999.3  -999.3  -999.3   -999.3    240.3  
  99.200    104.5  -999.3 -999.3   -999.3 -999.3 -999.3  -999.3   -999.3   -999.25  -999.250  -999.3  -999.3  -999.3   -999.3    240.3  
  99.400     80.1  -999.3 -999.3   -999.3 -999.3 -999.3  -999.3   -999.3   -999.25  -999.250  -999.3  -999.3  -999.3   -999.3    240.3  
  99.600    120.2  -999.3 -999.3   -999.3 -999.3 -999.3  -999.3   -999.3   -999.25  -999.250  -999.3  -999.3  -999.3   -999.3    240.3  
  99.800     87.0  -999.3 -999.3   -999.3 -999.3 -999.3  -999.3   -999.3   -999.25  -999.250  -999.3  -999.3  -999.3   -999.3    240.3  
 100.000     83.6  -999.3 -999.3   -999.3 -999.3 -999.3  -999.3   -999.3   -999.25  -999.250  -999.3  -999.3  -999.3   -999.3    240.3  
 100.200     62.6  -999.3 -999.3   -999.3 -999.3 -999.3  -999.3   -999.3   -999.25  -999.250  -999.3  -999.3  -999.3   -999.3    240.3  
 100.400    104.5  -999.3 -999.3   -999.3 -999.3 -999.3  -999.3   -999.3   -999.25  -999.250  -999.3  -999.3  -999.3   -999.3    240.3  
 100.600    108.0  -999.3 -999.3   -999.3 -999.3 -999.3  -999.3   -999.3   -999.25  -999.250  -999.3  -999.3  -999.3   -999.3    240.3  
 100.800     57.4  -999.3 -999.3   -999.3 -999.3 -999.3  -999.3   -999.3   -999.25  -999.250  -999.3  -999.3  -999.3   -999.3    240.3  
 101.000     62.6  -999.3 -999.3   -999.3 -999.3 -999.3  -999.3   -999.3   -999.25  -999.250  -999.3  -999.3  -999.3   -999.3    240.3  
 101.200     90.5  -999.3 -999.3   -999.3 -999.3 -999.3  -999.3   -999.3   -999.25  -999.250  -999.3  -999.3  -999.3   -999.3    240.3  
 101.400     88.8  70.0  -999.3   -999.3 -999.3 -999.3  -999.3   -999.3   -999.25  -999.250  -999.3  -999.3  -999.3   -999.3    240.3  
 101.600    104.5  69.9  -999.3   -999.3 -999.3 -999.3  -999.3   -999.3   -999.25  -999.250  -999.3  -999.3  -999.3   -999.3    240.3  
 101.800     62.6  70.0  -999.3   -999.3 -999.3 -999.3  -999.3   -999.3   -999.25  -999.250  -999.3  -999.3  -999.3   -999.3    240.3  
 102.000     83.6  70.0  -999.3   -999.3 -999.3 -999.3  -999.3   -999.3   -999.25  -999.250  -999.3  -999.3  -999.3   -999.3    240.3  
 102.200    104.5  69.9  -999.3   -999.3 -999.3 -999.3  -999.3   -999.3   -999.25  -999.250  -999.3  -999.3  -999.3   -999.3    240.3  
 102.400    108.0  70.0  -999.3   -999.3 -999.3 -999.3  -999.3   -999.3   -999.25  -999.250  -999.3  -999.3  -999.3   -999.3    240.3  
 102.600    115.0  70.0  -999.3   -999.3 -999.3 -999.3  -999.3   -999.3   -999.25  -999.250  -999.3  -999.3  -999.3   -999.3    240.3  
 102.800     97.5  70.0  -999.3   -999.3 -999.3 -999.3  -999.3   -999.3   -999.25  -999.250  -999.3  -999.3  -999.3   -999.3    240.3  
 103.000     90.5  69.9  -999.3   -999.3 -999.3 -999.3  -999.3   -999.3   -999.25  -999.250  -999.3  -999.3  -999.3   -999.3    240.3  
 103.200    115.0  69.9  -999.3   -999.3 -999.3 -999.3  -999.3   -999.3   -999.25  -999.250  -999.3  -999.3  -999.3   -999.3    240.3  
 103.400    160.3  70.0  -999.3   -999.3 -999.3 -999.3  -999.3   -999.3   -999.25  -999.250  -999.3  -999.3  -999.3   -999.3    240.3  
 103.600     62.6  70.0  -999.3   -999.3 -999.3 -999.3  -999.3   -999.3   -999.25  -999.250  -999.3  -999.3  -999.3   -999.3    240.3  
 103.800    111.5  70.0  -999.3   -999.3 -999.3 -999.3  -999.3   -999.3   -999.25  -999.250  -999.3  -999.3  -999.3   -999.3    240.3  
 104.000    109.7  70.0  -999.3   -999.3 -999.3 -999.3  -999.3   -999.3   -999.25  -999.250  -999.3  -999.3  -999.3   -999.3    240.3  
 104.200    115.0  70.0  -999.3   -999.3 -999.3 -999.3  -999.3   -999.3   -999.25  -999.250  -999.3  -999.3  -999.3   -999.3    240.3  
 104.400     73.1  70.0  -999.3   -999.3 -999.3 -999.3  -999.3   -999.3   -999.25  -999.250  -999.3  -999.3  -999.3   -999.3    240.3  
 104.600     87.0  70.0  -999.3   -999.3 -999.3 -999.3  -999.3   -999.3   -999.25  -999.250  -999.3  -999.3  -999.3   -999.3    240.3  
 104.800     83.6  70.0  -999.3   -999.3 -999.3 -999.3  -999.3   -999.3   -999.25  -999.250  -999.3  -999.3  -999.3   -999.3    240.3  
 105.000     83.6  70.0  -999.3   -999.3 -999.3 -999.3  -999.3   -999.3   -999.25  -999.250  -999.3  -999.3  -999.3   -999.3    240.3  
 105.200     99.3  69.9  -999.3   -999.3 -999.3 -999.3  -999.3   -999.3   -999.25  -999.250  -999.3  -999.3  -999.3   -999.3    240.3  
 105.400     78.3  70.0  -999.3   -999.3 -999.3 -999.3  -999.3   -999.3   -999.25  -999.250  -999.3  -999.3  -999.3   -999.3    240.3  
 105.600    115.0  70.0  -999.3   -999.3 -999.3 -999.3  -999.3   -999.3   -999.25  -999.250  -999.3  -999.3  -999.3   -999.3    240.3  
 105.800     99.3  70.0  -999.3   -999.3 -999.3 -999.3  -999.3   -999.3   -999.25  -999.250  -999.3  -999.3  -999.3   -999.3    240.3  
 106.000     87.0  69.9  -999.3   -999.3 -999.3 -999.3  -999.3   -999.3   -999.25  -999.250  -999.3  -999.3  -999.3   -999.3    240.3  
 106.200     83.6  70.0  -999.3   -999.3 -999.3 -999.3  -999.3   -999.3   -999.25  -999.250  -999.3  -999.3  -999.3   -999.3    240.3  
 106.400     90.5  70.0  -999.3   -999.3 -999.3 -999.3  -999.3   -999.3   -999.25  -999.250  -999.3  -999.3  -999.3   -999.3    240.3  
 106.600     83.6  70.0  -999.3   -999.3 -999.3 -999.3  -999.3   -999.3   -999.25  -999.250  -999.3  -999.3  -999.3   -999.3    240.3  
 106.800     83.6  70.0  -999.3   -999.3 -999.3 -999.3  -999.3   -999.3   -999.25  -999.250  -999.3  -999.3  -999.3   -999.3    240.3  
 107.000     88.8  70.0  -999.3   -999.3 -999.3 -999.3  -999.3   -999.3   -999.25  -999.250  -999.3  -999.3  -999.3   -999.3    240.3  
 107.200     73.1  70.0  -999.3   -999.3 -999.3 -999.3  -999.3   -999.3   -999.25  -999.250  -999.3  -999.3  -999.3   -999.3    240.3  
 107.400     88.8  70.0  -999.3   -999.3 -999.3 -999.3  -999.3   -999.3   -999.25  -999.250  -999.3  -999.3  -999.3   -999.3    240.3  
 107.600     87.0  70.0  -999.3   -999.3 -999.3 -999.3  -999.3   -999.3   -999.25  -999.250  -999.3  -999.3  -999.3   -999.3    240.3  
 107.800     52.1  70.0  -999.3   -999.3 -999.3 -999.3  -999.3   -999.3   -999.25  -999.250  -999.3  -999.3  -999.3   -999.3    240.3  
 108.000     73.1  69.9  22.4     -999.3 -999.3 -999.3  -999.3   -999.3   -999.25  -999.250  -999.3  -999.3  -999.3   -999.3    240.3  
 108.200     73.1  70.0  20.5     -999.3 -999.3 -999.3  -999.3   -999.3   -999.25  -999.250  -999.3  -999.3  -999.3   -999.3    240.3  
 108.400     87.0  70.0  18.9     -999.3 -999.3 -999.3  -999.3   -999.3   -999.25  -999.250  -999.3  -999.3  -999.3   -999.3    240.3  
 108.600     99.3  70.0  23.5     -999.3 -999.3 -999.3  -999.3   -999.3   -999.25  -999.250  -999.3  -999.3  -999.3   -999.3    240.3  
 108.800     57.4  70.0  19.3     -999.3 -999.3 -999.3  -999.3   -999.3   -999.25  -999.250  -999.3  -999.3  -999.3   -999.3    240.3  
 109.000     59.1  70.0  23.4     -999.3 -999.3 -999.3  -999.3   -999.3   -999.25  -999.250  -999.3  -999.3  -999.3   -999.3    240.3  
