~Version Information
 VERS.                2.0:  CWLS LOG ASCII STANDARD -VERSION 2.0
 WRAP.                 NO:  ONE LINE PER DEPTH STEP
~WELL INFORMATION BLOCK
#MNEM.UNIT       DATA              DESCRIPTION OF MNEMONIC
#---------    -------------            ------------------------
 STRT.FT  97.400                         :START DEPTH
 STOP.FT  1255.400                       :STOP DEPTH
 STEP.FT  0.200                          :STEP    UP_HOLE  
 NULL.    -999.25                        :NULL VALUE
 COMP.    BANNER OIL & GAS LLC           :COMPANY
 WELL.    MARY GREEN 41                                                :WELL
 FLD .     REGULAR                       :FIELD\LOCATION
 LOC .          N/A   N/A                :LOCATION
 CNTY.    ARCHER                         :COUNTY
 STAT.    TEXAS                          :STATE
 CTRY.    USA                            :COUNTRY
 SRVC.    45                             :SERVICE COMPANY
 DATE.    07/31/2015                     :LOG DATE
 API .   42-009-42911                        :API NUMBER
 LIC .    N/A                            :LICENSE NUMBER
~Curve Information Block
#MNEM.UNIT      API CODE     Curve Description
#---------    -------------  ------------------------
 DEPT     .FT        00 001 00 00          :  1  DEPTH   
 GAMMA    .API-GR    00 310 00 00          :  2  GAMMA RAY           
 TEMP     .DEG F     00 660 00 00          :  3  TEMPERATURE         
 POR(NEU) .PERCENT   00 330 00 00          :  4  NEUTRON POROSITY    
 1N       .OHM-M     00 000 00 00          :  5  1N                  
 2N       .OHM-M     00 000 00 00          :  6  2N                  
 CALIPER  .INCH      00 280 00 00          :  7  SHORT ARM CALIPER   
 PHOTO EL .BARNS/E   00 000 00 00          :  8  PHOTO EL            
 POR(DEN) .PERCENT   00 890 00 00          :  9  DENSITY POROSITY    
 DEN(CDL) .G/CC      00 350 00 00          : 10  COMPENSATED DENSITY 
 COMP     .G/CC      00 356 00 00          : 11  DEN COMPENSATION    
 RES(MG)  .OHM-M     00 220 00 00          : 12  MEDIUM GUARD RES    
 SP       .MV        00 010 00 00          : 13  SPON POTENTIAL      
 RES(MI)  .OHM-M     00 120 00 00          : 14  MED INDUCTION RES   
 RES(DI)  .OHM-M     00 120 00 00          : 15  DEEP INDUCTION RES  
 TENSION  .CPS       00 000 00 00          : 16  LINE TENSION        
~Parameter Information Block
#MNEM.UNIT   Information     Description
#---------- ---------------  ------------------------
 FILE.      PROCESSED          :File Type
 FIID.      4000               :File Type Identifier
 VERS.      4.00T              :System Version
 SER .      1                  :System Serial Number
 TRUK.      .67455             :Truck Calibration Number
 TOOL.        2487             :Tool Serial Number
 TIME.      1042               :Time    HrHrMinMin
 LAT .      N/A                :Latitude
 LON .      N/A                :Longitude
 LMF .      K.B.               :Log Measured From
 DMF .      K.B.               :Driller Measured From
 PD  .      G.L.               :Permanent Data
 PDEV.                         :Elevation Permanent Data
 EKB .M                        :Elevation Kelly Bushing
 ELEV.DF                       :Elevation DF
 EGL .M                        :Elevation Ground Level
 DRDP.      1260               :Driller's Depth
 CASD.                         :Casing Diameter
 CASB.      0                  :Casing Bottom
 CASX.      STEEL              :Casing Type
 CAST.      NA                 :Casing Thickness
 TNOC.      20:00              :Time Circulation Stopped
 LOGU.      806                :Logging Unit
 RECB.      J FRANKLIN         :Recorded By
 OSR1.      DIL DEN            :Other Services
 OSR2.      NEUT ML            :Other Services
 OSR3.                         :Other Services
 BS  .IN        6.75           :Bit Size
 MST .      DP                 :Mean Surface Temperature
 TGRD.      NA                 :Temperature Gradiant
 MAGN.      4                  :Magnetic Declination
 MDEN.      2.71               :Density Matrix
 MATR.      LIMESTONE          :Neutron Matrix
 DTMT.      49                 :Delta T Matrix
 DTFL.                         :Delta T Fluid
 MUDS.      PIT                :Mud Sample Source
 MRS .      2.2                :Mud Resistivity
 MTP .      78                 :Mud Temperature
 MFRS.      1.66               :Resistivity Mud Filtrate
 MFTP.                         :Temperature Mud Filtrate
 MCRS.      3.3                :Resistivity Mud Cake
 MCTP.                         :Temperature Mud Cake
 FTYP.      FGM                :Fluid Type
 FD  .LB/G   9.1               :Mud Weight
 DFV .S                        :Fluid Viscosity
 FPH .                         :Fuild PH
 ELCO.      10000              :Electron Cutoff
 CASL.      8.62               :Casing Logger
 LOTD.      1250               :Logger TD
 ARTM.      21:15              :Arrival Time
 DPTM.      23:15              :Departure Time
 RIGN.      RIG 1              :Rig Number
~Other Information
#MNEM.UNIT  Information      Description
#---------- ---------------  ------------------------
# -------------------------- 
~A DEPTH  GAMMA    TEMP  POR(NEU) 1N    2N    CALIPER PHOTO EL POR(DEN) DEN(CDL) COMP  RES(MG)  SP    RES(MI)  RES(DI)  TENSION  
# ...
 629.200     99.3  72.1  39.5      0.1   0.1   2.0     2.8     26.3     2.26     0.017     5.0  243.1     4.6      4.4    291.0  
 629.400     78.3  72.1  23.7      0.1   0.1   2.0     3.0     24.0     2.30     0.033     5.0  249.3     4.6      4.4    295.7  
 629.600     83.6  72.1  59.7      0.1   0.1   2.0     2.5     23.7     2.31     0.029     5.3  249.2     4.6      4.3    296.9  
 629.800     73.1  72.1  40.2      0.1   0.2   2.0     2.5     16.8     2.42     0.070     5.4  249.1     4.6      4.4    294.2  
 630.000    120.2  72.1  26.1      0.1   0.2   2.0     2.8     17.6     2.41     0.073     5.9  248.3     4.6      4.4    288.0  
 630.200     88.8  72.1  45.0      0.1   0.2   2.0     2.5     18.6     2.39     0.088     5.9  247.5     4.6      4.4    287.6  
 630.400     73.1  72.1  29.0      0.1   0.2   2.0     2.9     21.9     2.33     0.074     6.1  247.3     4.6      4.4    288.3  
 630.600    109.7  72.1  28.2      0.1   0.2   2.0     2.5     20.2     2.36     0.103     6.0  246.5     4.5      4.5    287.8  
 630.800    104.5  72.1  35.7      0.1   0.2   2.0     2.6     25.5     2.27     0.069     6.2  245.6     4.6      4.5    287.1  
 631.000    125.4  72.1  26.5      0.1   0.3   2.0     2.3     22.1     2.33     0.119     6.1  245.4     4.6      4.6    287.2  
 631.200     94.0  72.1  27.7      0.1   0.2   2.0     2.7     22.2     2.33     0.165     6.0  245.0     4.6      4.6    292.9  
 631.400     88.8  72.1  25.6      0.1   0.3   2.0     2.9     17.7     2.41     0.256     5.8  244.6     4.7      4.7    296.6  
 631.600     83.6  72.1  22.5      0.1   0.3   2.0     2.1     24.2     2.30     0.221     6.0  243.6     4.7      4.8    296.9  
 631.800    120.2  72.1  21.5      0.2   0.3   2.0     2.0     27.8     2.24     0.201     6.0  242.9     4.8      4.8    293.1  
 632.000     94.0  72.1  19.2      0.2   0.3   2.0     2.3     26.8     2.25     0.232     6.1  242.0     4.8      4.8    287.0  
 632.200    135.9  72.1  13.8      0.2   0.4   2.0     2.0     31.4     2.17     0.191     6.4  240.8     4.8      4.9    283.7  
 632.400    109.7  72.1  16.7      0.2   0.4   2.0     1.9     32.1     2.16     0.197     6.5  239.5     4.8      4.9    283.9  
 632.600    120.2  72.1  13.4      0.2   0.4   2.0     2.2     29.9     2.20     0.214     6.7  238.8     4.8      4.9    284.3  
 632.800    115.0  72.1  18.0      0.2   0.4   2.0     2.1     32.0     2.16     0.196     6.8  238.0     4.9      4.9    284.2  
 633.000    104.5  72.1  13.0      0.2   0.5   2.0     2.2     29.7     2.20     0.212     6.9  237.5     4.9      4.9    285.7  
 633.200    104.5  72.1  14.1      0.2   0.4   2.0     2.2     29.1     2.21     0.205     6.8  237.0     4.9      4.8    291.0  
 633.400     73.1  72.1  16.1      0.3   0.5   2.0     2.2     27.7     2.24     0.218     6.7  236.5     4.9      4.8    296.5  
 633.600     73.1  72.1  18.7      0.3   0.5   2.0     2.2     27.9     2.23     0.215     7.0  234.5     4.9      4.7    298.8  
 633.800     83.6  72.1  18.9      0.3   0.5   2.0     2.1     28.1     2.23     0.219     7.1  233.8     4.9      4.7    296.0  
 634.000     31.2  72.1  14.9      0.3   0.5   2.0     1.9     29.6     2.20     0.196     7.1  235.1     4.9      4.6    289.3  
 634.200     57.4  72.1  12.8      0.3   0.5   2.0     1.7     29.2     2.21     0.197     7.2  237.5     4.8      4.6    286.2  
 634.400     94.0  72.1  13.0      0.3   0.5   2.0     1.8     29.6     2.20     0.186     7.1  238.1     4.8      4.6    284.7  
 634.600     94.0  72.1  14.6      0.3   0.5   2.0     1.7     28.4     2.22     0.194     6.8  236.3     4.7      4.6    285.5  
 634.800     62.6  72.1  14.7      0.2   0.5   2.0     1.6     31.0     2.18     0.165     6.7  231.8     4.7      4.5    286.4  
 635.000     78.3  72.1  16.3      0.2   0.4   2.0     1.8     30.4     2.19     0.178     6.4  228.1     4.6      4.5    287.3  
 635.200     41.7  72.1   9.5      0.2   0.4   2.0     1.8     30.3     2.19     0.185     6.3  225.9     4.6      4.4    290.8  
 635.400     46.9  72.1  13.3      0.2   0.4   2.0     1.8     27.4     2.24     0.206     6.3  224.3     4.6      4.4    295.1  
 635.600     67.9  72.1  17.3      0.2   0.4   2.0     2.1     26.0     2.27     0.231     6.2  225.2     4.6      4.4    297.5  
 635.800     41.7  72.1  12.5      0.2   0.4   2.0     2.1     34.6     2.12     0.148     6.4  226.2     4.5      4.5    297.0  
 636.000     52.1  72.1  15.8      0.2   0.4   2.0     2.0     42.4     1.98     0.124     6.4  227.6     4.5      4.5    290.3  
 636.200     52.1  72.1  19.5      0.2   0.4   2.0     1.7     56.3     1.75     0.098     6.5  228.9     4.4      4.5    286.1  
 636.400     41.7  72.1  26.4      0.2   0.4   2.0     0.9     69.6     1.52     0.068     6.7  231.4     4.2      4.5    284.2  
 636.600     31.2  72.1  30.2      0.2   0.3   2.0     0.9     71.5     1.49     0.041     6.4  234.8     4.2      4.5    283.0  
 636.800    104.5  72.1  41.1      0.1   0.3   2.0     1.2     63.5     1.62     0.094     6.1  238.8     4.2      4.6    283.9  
 637.000    135.9  72.1  17.2      0.1   0.2   2.0     1.7     46.2     1.92     0.207     5.5  241.5     4.3      4.5    283.7  
 637.200     62.6  72.1  30.4      0.1   0.2   2.0     1.9     42.3     1.99     0.150     5.0  242.3     4.4      4.5    288.0  
 637.400    141.1  72.1  37.0      0.1   0.2   2.0     2.5     37.6     2.07     0.149     4.9  242.0     4.6      4.6    293.8  
 637.600     57.4  72.1  30.1      0.1   0.2   2.0     2.2     31.7     2.17     0.190     4.8  241.6     4.7      4.5    297.4  
 637.800     62.6  72.1  33.7      0.2   0.3   2.0     2.3     29.0     2.21     0.208     5.2  241.0     4.8      4.5    296.3  
 638.000    135.9  72.1  35.2      0.2   0.3   2.0     1.9     31.3     2.18     0.164     5.4  241.0     4.8      4.4    290.5  
 638.200    104.5  72.1  23.7      0.2   0.4   2.0     2.3     31.8     2.17     0.184     6.2  241.6     4.7      4.4    287.0  
 638.400    115.0  72.1  18.0      0.3   0.4   2.0     2.7     29.9     2.20     0.230     6.7  242.4     4.6      4.3    285.5  
 638.600    120.2  72.1  38.9      0.3   0.4   2.0     2.3     27.8     2.24     0.234     7.2  243.2     4.6      4.2    285.3  
 638.800    115.0  72.1  28.1      0.2   0.4   2.0     2.4     29.6     2.20     0.208     7.0  244.2     4.5      4.2    285.4  
 639.000    146.4  72.1  27.1      0.2   0.4   2.0     2.6     31.2     2.18     0.158     6.9  244.0     4.4      4.2    284.9  
 639.200    146.4  72.1  25.3      0.2   0.4   2.0     3.4     24.0     2.30     0.222     6.7  243.3     4.4      4.2    289.2  
 639.400    135.9  72.1  24.3      0.2   0.4   2.0     3.4     25.3     2.28     0.194     6.5  243.2     4.4      4.2    295.0  
 639.600    156.8  72.1  30.0      0.2   0.3   2.0     3.2     30.2     2.19     0.142     6.4  243.1     4.3      4.2    298.0  
 639.800    162.1  72.1  34.4      0.2   0.4   2.0     3.2     36.9     2.08     0.142     6.7  243.5     4.2      4.2    298.5  
 640.000    146.4  72.1  28.0      0.2   0.4   2.0     2.5     43.2     1.97     0.167     6.8  243.2     4.2      4.2    291.8  
 640.200    141.1  72.1  35.2      0.2   0.4   2.0     1.3     60.2     1.68     0.094     6.8  241.7     4.1      4.2    287.4  
 640.400    104.5  72.1  32.2      0.2   0.4   2.0     0.6     72.9     1.46     0.029     6.8  240.4     4.0      4.2    285.4  
 640.600    115.0  72.1  44.0      0.2   0.4   2.0     0.8     79.4     1.35     -0.018     6.3  238.6     3.9      4.3    284.6  
 640.800    104.5  72.1  24.7      0.2   0.3   2.0     0.6     79.7     1.35     -0.032     5.7  237.6     3.9      4.3    285.6  
 641.000     83.6  72.1  35.8      0.2   0.3   2.0     0.6     78.8     1.36     -0.019     5.3  238.2     3.9      4.3    285.3  
 641.200     62.6  72.1  45.9      0.1   0.2   2.0     0.7     77.4     1.39     -0.017     4.9  238.0     3.9      4.3    288.2  
 641.400     94.0  72.1  39.7      0.1   0.2   2.0     0.8     69.8     1.52     0.038     4.9  237.5     4.0      4.3    293.3  
