~Version Information
 VERS.                2.0:  CWLS LOG ASCII STANDARD -VERSION 2.0
 WRAP.                 NO:  ONE LINE PER DEPTH STEP
~WELL INFORMATION BLOCK
#MNEM.UNIT       DATA              DESCRIPTION OF MNEMONIC
#---------    -------------            ------------------------
 STRT.FT  97.400                         :START DEPTH
 STOP.FT  1255.400                       :STOP DEPTH
 STEP.FT  0.200                          :STEP    UP_HOLE  
 NULL.    -999.25                        :NULL VALUE
 COMP.    BANNER OIL & GAS LLC           :COMPANY
 WELL.    MARY GREEN 41                                                :WELL
 FLD .     REGULAR                       :FIELD\LOCATION
 LOC .          N/A   N/A                :LOCATION
 CNTY.    ARCHER                         :COUNTY
 STAT.    TEXAS                          :STATE
 CTRY.    USA                            :COUNTRY
 SRVC.    45                             :SERVICE COMPANY
 DATE.    07/31/2015                     :LOG DATE
 API .   42-009-42911                        :API NUMBER
 LIC .    N/A                            :LICENSE NUMBER
~Curve Information Block
#MNEM.UNIT      API CODE     Curve Description
#---------    -------------  ------------------------
 DEPT     .FT        00 001 00 00          :  1  DEPTH   
 GAMMA    .API-GR    00 310 00 00          :  2  GAMMA RAY           
 TEMP     .DEG F     00 660 00 00          :  3  TEMPERATURE         
 POR(NEU) .PERCENT   00 330 00 00          :  4  NEUTRON POROSITY    
 1N       .OHM-M     00 000 00 00          :  5  1N                  
 2N       .OHM-M     00 000 00 00          :  6  2N                  
 CALIPER  .INCH      00 280 00 00          :  7  SHORT ARM CALIPER   
 PHOTO EL .BARNS/E   00 000 00 00          :  8  PHOTO EL            
 POR(DEN) .PERCENT   00 890 00 00          :  9  DENSITY POROSITY    
 DEN(CDL) .G/CC      00 350 00 00          : 10  COMPENSATED DENSITY 
 COMP     .G/CC      00 356 00 00          : 11  DEN COMPENSATION    
 RES(MG)  .OHM-M     00 220 00 00          : 12  MEDIUM GUARD RES    
 SP       .MV        00 010 00 00          : 13  SPON POTENTIAL      
 RES(MI)  .OHM-M     00 120 00 00          : 14  MED INDUCTION RES   
 RES(DI)  .OHM-M     00 120 00 00          : 15  DEEP INDUCTION RES  
 TENSION  .CPS       00 000 00 00          : 16  LINE TENSION        
~Parameter Information Block
#MNEM.UNIT   Information     Description
#---------- ---------------  ------------------------
 FILE.      PROCESSED          :File Type
 FIID.      4000               :File Type Identifier
 VERS.      4.00T              :System Version
 SER .      1                  :System Serial Number
 TRUK.      .67455             :Truck Calibration Number
 TOOL.        2487             :Tool Serial Number
 TIME.      1042               :Time    HrHrMinMin
 LAT .      N/A                :Latitude
 LON .      N/A                :Longitude
 LMF .      K.B.               :Log Measured From
 DMF .      K.B.               :Driller Measured From
 PD  .      G.L.               :Permanent Data
 PDEV.                         :Elevation Permanent Data
 EKB .M                        :Elevation Kelly Bushing
 ELEV.DF                       :Elevation DF
 EGL .M                        :Elevation Ground Level
 DRDP.      1260               :Driller's Depth
 CASD.                         :Casing Diameter
 CASB.      0                  :Casing Bottom
 CASX.      STEEL              :Casing Type
 CAST.      NA                 :Casing Thickness
 TNOC.      20:00              :Time Circulation Stopped
 LOGU.      806                :Logging Unit
 RECB.      J FRANKLIN         :Recorded By
 OSR1.      DIL DEN            :Other Services
 OSR2.      NEUT ML            :Other Services
 OSR3.                         :Other Services
 BS  .IN        6.75           :Bit Size
 MST .      DP                 :Mean Surface Temperature
 TGRD.      NA                 :Temperature Gradiant
 MAGN.      4                  :Magnetic Declination
 MDEN.      2.71               :Density Matrix
 MATR.      LIMESTONE          :Neutron Matrix
 DTMT.      49                 :Delta T Matrix
 DTFL.                         :Delta T Fluid
 MUDS.      PIT                :Mud Sample Source
 MRS .      2.2                :Mud Resistivity
 MTP .      78                 :Mud Temperature
 MFRS.      1.66               :Resistivity Mud Filtrate
 MFTP.                         :Temperature Mud Filtrate
 MCRS.      3.3                :Resistivity Mud Cake
 MCTP.                         :Temperature Mud Cake
 FTYP.      FGM                :Fluid Type
 FD  .LB/G   9.1               :Mud Weight
 DFV .S                        :Fluid Viscosity
 FPH .                         :Fuild PH
 ELCO.      10000              :Electron Cutoff
 CASL.      8.62               :Casing Logger
 LOTD.      1250               :Logger TD
 ARTM.      21:15              :Arrival Time
 DPTM.      23:15              :Departure Time
 RIGN.      RIG 1              :Rig Number
~Other Information
#MNEM.UNIT  Information      Description
#---------- ---------------  ------------------------
# -------------------------- 
~A DEPTH  GAMMA    TEMP  POR(NEU) 1N    2N    CALIPER PHOTO EL POR(DEN) DEN(CDL) COMP  RES(MG)  SP    RES(MI)  RES(DI)  TENSION  
# ...
 939.200     73.1  72.1  13.5      1.7   2.0   6.4     2.1     19.2     2.38     0.004     7.3  182.8     2.8      2.6    341.8  
 939.400     54.8  72.1  12.6      2.2   2.1   6.4     2.3     16.0     2.44     0.037     7.0  183.2     2.7      2.6    335.5  
 939.600     90.5  72.1  15.2      2.6   2.4   6.4     2.2     14.7     2.46     0.031     6.6  184.1     2.7      2.6    330.6  
 939.800     66.1  72.1  10.7      2.5   2.2   6.4     1.9     12.2     2.50     0.047     6.7  185.5     2.7      2.6    329.2  
 940.000     94.0  72.1  12.8      2.4   2.0   6.4     2.1     14.1     2.47     0.020     6.2  186.9     2.7      2.7    331.0  
 940.200     65.2  72.1  12.5      2.6   2.2   6.4     2.5     13.5     2.48     0.026     6.3  188.0     2.8      2.7    332.7  
 940.400     73.1  72.1  12.1      2.7   2.4   6.4     2.4     13.2     2.48     0.012     6.3  189.6     2.8      2.8    331.3  
 940.600     55.6  72.1  11.9      2.4   2.0   6.4     2.9     15.2     2.45     -0.020     6.1  191.6     2.9      2.8    333.1  
 940.800     87.0  72.1  12.9      1.8   1.5   6.4     2.8      6.9     2.59     0.049     5.9  195.5     3.0      2.9    338.8  
 941.000    117.6  72.1  14.0      1.5   1.2   6.4     2.7     13.9     2.47     -0.011     5.5  199.6     3.1      3.0    343.9  
 941.200    139.4  72.1  18.0      1.4   1.1   6.4     2.9      9.0     2.56     0.031     5.2  204.2     3.2      3.2    343.9  
 941.400     80.1  72.1  19.8      1.3   1.1   6.4     2.8     14.2     2.47     0.000     5.4  210.4     3.3      3.2    336.3  
 941.600    153.3  72.1  21.1      1.3   1.0   6.4     3.2     10.5     2.53     0.019     5.5  214.7     3.4      3.4    330.7  
 941.800    109.7  72.1  17.4      1.2   1.1   6.4     3.2     10.3     2.53     0.032     5.8  217.5     3.4      3.5    328.2  
 942.000    128.9  72.1  22.3      1.1   1.1   6.4     2.4     12.2     2.50     -0.007     5.9  218.7     3.5      3.7    327.6  
 942.200    146.4  72.1  22.5      1.2   1.1   6.4     2.8      9.7     2.54     0.013     6.2  218.6     3.6      3.8    328.8  
 942.400     94.0  72.1  20.2      1.2   1.1   6.4     3.3      9.7     2.54     0.017     6.1  218.7     3.7      3.9    329.5  
 942.600    109.7  72.1  19.2      1.1   1.1   6.4     2.7     15.1     2.45     -0.021     6.2  218.5     3.8      4.0    332.5  
 942.800    135.9  72.1  19.6      1.2   1.1   6.4     3.1     11.0     2.52     0.016     6.1  218.0     3.9      4.1    337.3  
 943.000    125.4  72.1  17.8      1.2   1.1   6.4     3.1     12.3     2.50     0.004     6.0  217.4     4.0      4.2    342.5  
 943.200    128.9  72.1  17.5      1.3   1.1   6.4     2.9     14.2     2.47     -0.010     6.4  217.2     4.1      4.2    344.7  
 943.400    133.3  72.1  17.5      1.2   1.1   6.4     2.4      7.0     2.59     0.039     6.4  217.0     4.2      4.2    340.3  
 943.600    142.9  72.1  14.0      1.1   1.1   6.4     3.2      9.7     2.54     0.030     6.6  217.0     4.2      4.2    334.7  
 943.800    101.0  72.1  16.3      1.2   1.2   6.4     2.8      8.5     2.57     0.033     6.5  215.9     4.3      4.2    333.8  
 944.000    104.5  72.1  15.0      1.3   1.2   6.4     3.1      9.8     2.54     0.026     6.5  215.3     4.3      4.2    336.8  
 944.200    111.5  72.1  16.0      1.4   1.3   6.3     3.1      7.2     2.59     0.054     6.7  214.9     4.3      4.3    339.3  
 944.400     88.8  72.1  13.9      1.7   1.5   6.3     2.9      8.5     2.56     0.034     6.9  214.5     4.4      4.2    335.2  
 944.600    156.8  72.1  19.3      1.6   1.4   6.3     3.2      9.3     2.55     0.033     6.7  214.6     4.4      4.2    334.5  
 944.800    108.0  72.1  16.3      1.5   1.3   6.3     3.0      8.2     2.57     0.042     6.8  215.2     4.4      4.2    336.3  
 945.000    125.4  72.1  15.5      1.5   1.3   6.3     3.1     13.3     2.48     0.013     6.7  215.6     4.4      4.2    341.5  
 945.200    149.0  72.1  15.3      1.4   1.3   6.3     2.7     10.8     2.53     0.014     6.5  217.0     4.4      4.2    342.9  
 945.400     94.0  72.2  17.8      1.4   1.3   6.3     2.8      8.3     2.57     0.039     6.7  217.0     4.4      4.2    337.8  
 945.600    125.4  72.1  15.4      1.4   1.2   6.3     3.3      9.9     2.54     0.035     6.8  216.8     4.4      4.2    332.1  
 945.800    118.4  72.1  17.0      1.4   1.3   6.3     3.0      8.0     2.57     0.040     6.8  215.6     4.3      4.2    329.5  
 946.000    120.2  72.1  17.8      1.5   1.3   6.3     3.4     15.8     2.44     -0.015     6.5  215.0     4.3      4.1    330.9  
 946.200     80.1  72.1  17.8      1.4   1.3   6.3     3.5     11.6     2.51     0.010     6.5  214.6     4.3      4.1    332.4  
 946.400    115.0  72.1  13.2      1.4   1.2   6.3     3.5      9.3     2.55     0.041     6.6  214.5     4.2      4.1    331.7  
 946.600    108.0  72.1  16.3      1.4   1.2   6.3     3.1      7.8     2.58     0.063     6.7  213.4     4.2      4.0    333.9  
 946.800    112.3  72.1  18.6      1.5   1.3   6.3     2.9     13.7     2.48     0.009     6.4  211.8     4.2      3.9    338.5  
 947.000     97.5  72.1  16.6      1.4   1.2   6.3     2.7     14.0     2.47     0.004     6.4  210.7     4.1      3.9    343.7  
 947.200     80.1  72.1  14.3      1.2   1.2   6.3     3.2     12.3     2.50     0.023     6.4  209.5     4.1      3.8    344.8  
 947.400     83.6  72.1  17.9      1.1   1.2   6.3     3.2      7.3     2.59     0.058     6.2  207.7     4.1      3.7    340.8  
 947.600     94.0  72.1  15.6      1.2   1.2   6.3     2.9     10.7     2.53     0.023     6.2  206.0     4.0      3.6    336.0  
 947.800    115.0  72.1  13.6      1.2   1.2   6.3     2.8     13.6     2.48     0.009     6.3  207.2     4.0      3.6    332.9  
 948.000    118.4  72.1  12.9      1.2   1.1   6.3     2.7     17.0     2.42     -0.010     6.2  209.7     3.9      3.5    328.0  
 948.200    112.3  72.1  16.0      1.3   1.2   6.3     3.2     13.2     2.48     0.030     6.4  211.1     3.9      3.5    327.1  
 948.400     90.5  72.1  17.3      1.3   1.3   6.3     2.8     10.3     2.53     0.064     6.5  211.4     3.8      3.4    326.0  
 948.600    146.4  72.1  16.8      1.1   1.3   6.3     3.2     13.4     2.48     0.029     6.2  210.7     3.7      3.3    328.9  
 948.800     97.5  72.1  16.4      1.2   1.3   6.3     2.7     17.8     2.41     0.015     6.2  209.5     3.6      3.3    334.4  
 949.000     73.1  72.1  14.2      1.3   1.3   6.3     2.7     16.0     2.44     0.014     6.0  207.0     3.5      3.2    340.3  
 949.200     59.1  72.1  17.4      1.4   1.3   6.3     2.3     14.7     2.46     0.014     5.9  205.1     3.4      3.2    342.8  
 949.400     66.1  72.1  14.4      1.4   1.3   6.3     2.4     17.8     2.41     0.008     5.7  205.1     3.4      3.2    340.5  
 949.600     97.5  72.1  14.6      2.0   1.7   6.3     2.3     12.7     2.49     0.046     5.8  204.8     3.3      3.1    337.2  
 949.800    101.9  72.1  15.5      1.7   1.5   6.3     2.4     18.9     2.39     -0.018     5.7  204.7     3.3      3.1    334.6  
 950.000    101.0  72.1  18.3      1.5   1.3   6.3     2.4     16.9     2.42     -0.012     5.5  205.1     3.2      3.0    330.7  
 950.200     59.1  72.1  14.9      1.8   1.5   6.2     3.0     17.1     2.42     0.008     6.0  203.7     3.2      3.0    328.7  
 950.400     90.5  72.1  18.8      2.1   1.9   6.2     2.9     11.8     2.51     0.062     5.9  201.9     3.1      2.9    324.9  
 950.600     80.1  72.1  14.4      2.0   2.0   6.2     2.3     11.6     2.51     0.061     5.8  200.4     3.1      2.8    326.3  
 950.800     78.3  72.1  15.4      1.5   1.5   6.2     2.5     18.5     2.39     -0.003     6.1  200.7     3.0      2.7    333.3  
 951.000     59.1  72.1  15.7      1.2   1.2   6.3     2.8     11.1     2.52     0.043     6.1  201.6     3.0      2.7    340.6  
 951.200    108.0  72.1  17.0      1.8   1.7   6.2     3.2      9.1     2.55     0.065     6.5  200.2     2.9      2.6    342.9  
 951.400     73.1  72.1  14.1      2.3   2.4   6.2     3.0     13.6     2.48     0.019     6.7  197.6     2.9      2.5    339.4  
