~Version Information
 VERS.                2.0:  CWLS LOG ASCII STANDARD -VERSION 2.0
 WRAP.                 NO:  ONE LINE PER DEPTH STEP
~WELL INFORMATION BLOCK
#MNEM.UNIT       DATA              DESCRIPTION OF MNEMONIC
#---------    -------------            ------------------------
 STRT.FT  97.400                         :START DEPTH
 STOP.FT  1255.400                       :STOP DEPTH
 STEP.FT  0.200                          :STEP    UP_HOLE  
 NULL.    -999.25                        :NULL VALUE
 COMP.    BANNER OIL & GAS LLC           :COMPANY
 WELL.    MARY GREEN 41                                                :WELL
 FLD .     REGULAR                       :FIELD\LOCATION
 LOC .          N/A   N/A                :LOCATION
 CNTY.    ARCHER                         :COUNTY
 STAT.    TEXAS                          :STATE
 CTRY.    USA                            :COUNTRY
 SRVC.    45                             :SERVICE COMPANY
 DATE.    07/31/2015                     :LOG DATE
 API .   42-009-42911                        :API NUMBER
 LIC .    N/A                            :LICENSE NUMBER
~Curve Information Block
#MNEM.UNIT      API CODE     Curve Description
#---------    -------------  ------------------------
 DEPT     .FT        00 001 00 00          :  1  DEPTH   
 GAMMA    .API-GR    00 310 00 00          :  2  GAMMA RAY           
 TEMP     .DEG F     00 660 00 00          :  3  TEMPERATURE         
 POR(NEU) .PERCENT   00 330 00 00          :  4  NEUTRON POROSITY    
 1N       .OHM-M     00 000 00 00          :  5  1N                  
 2N       .OHM-M     00 000 00 00          :  6  2N                  
 CALIPER  .INCH      00 280 00 00          :  7  SHORT ARM CALIPER   
 PHOTO EL .BARNS/E   00 000 00 00          :  8  PHOTO EL            
 POR(DEN) .PERCENT   00 890 00 00          :  9  DENSITY POROSITY    
 DEN(CDL) .G/CC      00 350 00 00          : 10  COMPENSATED DENSITY 
 COMP     .G/CC      00 356 00 00          : 11  DEN COMPENSATION    
 RES(MG)  .OHM-M     00 220 00 00          : 12  MEDIUM GUARD RES    
 SP       .MV        00 010 00 00          : 13  SPON POTENTIAL      
 RES(MI)  .OHM-M     00 120 00 00          : 14  MED INDUCTION RES   
 RES(DI)  .OHM-M     00 120 00 00          : 15  DEEP INDUCTION RES  
 TENSION  .CPS       00 000 00 00          : 16  LINE TENSION        
~Parameter Information Block
#MNEM.UNIT   Information     Description
#---------- ---------------  ------------------------
 FILE.      PROCESSED          :File Type
 FIID.      4000               :File Type Identifier
 VERS.      4.00T              :System Version
 SER .      1                  :System Serial Number
 TRUK.      .67455             :Truck Calibration Number
 TOOL.        2487             :Tool Serial Number
 TIME.      1042               :Time    HrHrMinMin
 LAT .      N/A                :Latitude
 LON .      N/A                :Longitude
 LMF .      K.B.               :Log Measured From
 DMF .      K.B.               :Driller Measured From
 PD  .      G.L.               :Permanent Data
 PDEV.                         :Elevation Permanent Data
 EKB .M                        :Elevation Kelly Bushing
 ELEV.DF                       :Elevation DF
 EGL .M                        :Elevation Ground Level
 DRDP.      1260               :Driller's Depth
 CASD.                         :Casing Diameter
 CASB.      0                  :Casing Bottom
 CASX.      STEEL              :Casing Type
 CAST.      NA                 :Casing Thickness
 TNOC.      20:00              :Time Circulation Stopped
 LOGU.      806                :Logging Unit
 RECB.      J FRANKLIN         :Recorded By
 OSR1.      DIL DEN            :Other Services
 OSR2.      NEUT ML            :Other Services
 OSR3.                         :Other Services
 BS  .IN        6.75           :Bit Size
 MST .      DP                 :Mean Surface Temperature
 TGRD.      NA                 :Temperature Gradiant
 MAGN.      4                  :Magnetic Declination
 MDEN.      2.71               :Density Matrix
 MATR.      LIMESTONE          :Neutron Matrix
 DTMT.      49                 :Delta T Matrix
 DTFL.                         :Delta T Fluid
 MUDS.      PIT                :Mud Sample Source
 MRS .      2.2                :Mud Resistivity
 MTP .      78                 :Mud Temperature
 MFRS.      1.66               :Resistivity Mud Filtrate
 MFTP.                         :Temperature Mud Filtrate
 MCRS.      3.3                :Resistivity Mud Cake
 MCTP.                         :Temperature Mud Cake
 FTYP.      FGM                :Fluid Type
 FD  .LB/G   9.1               :Mud Weight
 DFV .S                        :Fluid Viscosity
 FPH .                         :Fuild PH
 ELCO.      10000              :Electron Cutoff
 CASL.      8.62               :Casing Logger
 LOTD.      1250               :Logger TD
 ARTM.      21:15              :Arrival Time
 DPTM.      23:15              :Departure Time
 RIGN.      RIG 1              :Rig Number
~Other Information
#MNEM.UNIT  Information      Description
#---------- ---------------  ------------------------
# -------------------------- 
~A DEPTH  GAMMA    TEMP  POR(NEU) 1N    2N    CALIPER PHOTO EL POR(DEN) DEN(CDL) COMP  RES(MG)  SP    RES(MI)  RES(DI)  TENSION  
# ...
 864.800    111.5  72.0  16.5      1.4   1.4   6.4     3.1     17.7     2.41     -0.015     7.3  218.2     5.0      4.8    331.1  
 865.000    139.4  72.0  18.5      1.5   1.5   6.4     2.8     11.0     2.52     0.021     7.0  224.3     5.0      4.8    322.9  
 865.200    135.9  72.0  16.5      1.7   1.6   6.4     3.3      7.6     2.58     0.050     7.1  224.4     5.0      4.9    324.1  
 865.400    112.3  72.0  14.9      1.8   1.5   6.4     3.6     11.1     2.52     0.038     7.2  224.5     5.0      4.9    326.4  
 865.600     94.0  72.0  19.8      1.7   1.6   6.4     3.2      9.6     2.55     0.065     7.1  225.5     5.0      4.9    322.2  
 865.800     87.0  72.0  16.8      1.7   1.5   6.4     3.1     10.0     2.54     0.067     7.1  225.6     5.0      4.9    320.2  
 866.000    104.5  72.0  18.5      1.8   1.6   6.4     2.3      8.4     2.57     0.057     7.2  225.7     5.0      4.8    321.1  
 866.200    104.5  72.0  16.6      1.8   1.6   6.4     2.5      7.5     2.58     0.066     7.0  225.5     5.0      4.7    324.7  
 866.400    104.5  72.0  17.5      1.8   1.6   6.4     2.8     14.8     2.46     0.001     7.1  225.5     5.0      4.7    329.9  
 866.600    108.0  72.0  16.5      1.7   1.5   6.4     2.5     11.2     2.52     0.018     7.1  225.5     5.0      4.6    326.2  
 866.800    111.5  72.0  17.8      1.6   1.4   6.4     3.0      7.1     2.59     0.057     7.0  225.3     5.0      4.5    323.4  
 867.000    149.8  72.0  16.0      1.3   1.4   6.4     2.1     12.5     2.50     0.007     7.1  223.8     5.0      4.4    314.1  
 867.200     97.5  72.0  18.1      1.3   1.3   6.4     1.9     11.9     2.51     0.009     6.9  222.2     4.9      4.4    343.4  
 867.400    104.5  72.0  13.0      1.7   1.6   6.5     2.2      8.7     2.56     0.025     7.0  221.1     4.7      4.4    409.2  
 867.600    111.5  72.0  12.1      2.1   1.7   6.5     2.6      7.6     2.58     0.017     7.0  221.1     4.6      4.3    431.5  
 867.800    107.1  72.0  17.9      1.9   1.6   6.5     3.0      4.6     2.63     0.034     6.9  221.6     4.6      4.3    408.1  
 868.000    125.4  72.0  15.3      1.8   1.5   6.5     4.0     11.2     2.52     -0.011     7.0  221.3     4.5      4.2    353.9  
 868.200     90.5  72.0  17.1      1.9   1.5   6.5     3.5      7.1     2.59     0.049     7.0  220.3     4.3      4.2    453.3  
 868.400    108.0  72.0  14.0      1.8   1.5   6.5     3.0     10.1     2.54     0.028     6.7  219.8     4.3      4.1    427.1  
 868.600    115.0  72.0  16.1      1.7   1.4   6.5     2.9      7.5     2.58     0.062     6.5  218.8     4.3      4.0    402.7  
 868.800     94.0  72.0  14.8      1.8   1.4   6.5     3.3     14.3     2.46     0.035     6.7  215.9     4.2      3.9    378.4  
 869.000    107.1  72.0  15.8      1.8   1.5   6.4     3.8      0.1     2.71     0.204     6.6  213.1     4.2      3.8    365.2  
 869.200    104.5  72.0  15.3      1.7   1.4   6.5     3.3      2.5     2.67     0.190     6.7  211.5     4.1      3.8    352.8  
 869.400    118.4  72.0  13.8      1.7   1.6   6.5     2.3     10.6     2.53     0.093     6.5  210.0     4.1      3.7    343.5  
 869.600     69.6  72.0  15.4      1.6   1.4   6.5     2.4     12.3     2.50     0.024     6.3  209.1     4.1      3.6    339.1  
 869.800     80.1  72.0  12.9      1.4   1.2   6.5     2.6     15.0     2.45     -0.014     6.1  209.5     4.0      3.5    339.7  
 870.000     55.6  72.0  13.5      1.2   1.2   6.5     3.1     13.6     2.48     0.005     6.1  210.8     4.0      3.5    347.4  
 870.200     88.8  72.0  15.6      1.2   1.1   6.4     2.5     11.1     2.52     0.028     6.0  213.1     3.9      3.4    351.8  
 870.400     83.6  72.0  16.9      1.5   1.2   6.4     2.5     10.6     2.53     0.048     5.9  214.0     3.8      3.4    354.1  
 870.600     66.1  72.0  18.2      1.8   1.5   6.4     2.3     10.4     2.53     0.068     6.2  215.9     3.8      3.4    345.1  
 870.800     62.6  72.0  15.5      2.0   1.6   6.4     2.1     15.6     2.44     0.035     6.1  216.2     3.7      3.3    334.6  
 871.000    101.0  72.0  11.8      2.0   1.7   6.4     2.1     17.0     2.42     0.020     6.3  214.8     3.7      3.3    331.1  
 871.200     83.6  72.0  11.3      2.1   1.7   6.4     2.1     15.4     2.45     0.033     6.5  211.8     3.6      3.3    334.0  
 871.400     73.1  72.0  12.9      2.3   1.8   6.4     2.1     16.6     2.43     0.002     6.9  207.2     3.5      3.2    340.2  
 871.600     76.6  72.0  11.1      2.7   2.4   6.4     2.4     11.4     2.51     0.024     7.3  202.4     3.4      3.2    340.4  
 871.800     55.6  72.0  10.3      3.4   3.3   6.4     2.6     13.0     2.49     0.006     7.9  198.7     3.4      3.1    338.9  
 872.000     41.7  72.0   9.9      3.2   3.1   6.4     2.7     13.2     2.48     0.013     7.9  197.6     3.4      3.1    341.9  
 872.200     54.8  72.0  12.2      2.9   2.7   6.4     3.0     10.8     2.53     0.040     7.6  199.4     3.4      3.0    348.2  
 872.400     83.6  72.0   9.5      2.4   2.1   6.4     2.7     11.8     2.51     0.026     7.0  203.2     3.4      3.0    347.7  
 872.600     76.6  72.0  11.8      1.8   1.7   6.4     2.7      9.8     2.54     0.061     6.4  206.5     3.4      3.0    342.9  
 872.800    111.5  72.0  11.8      2.0   1.7   6.4     2.7     12.6     2.49     0.044     6.4  209.4     3.4      3.0    338.7  
 873.000     94.0  72.0  12.6      2.0   1.7   6.4     2.4     17.0     2.42     0.019     6.2  210.2     3.3      3.0    336.2  
 873.200     97.5  72.0  12.0      1.9   1.7   6.4     2.5     15.7     2.44     0.048     6.3  209.0     3.3      3.0    334.4  
 873.400     69.6  72.0  12.5      1.9   1.7   6.4     1.9     15.2     2.45     0.039     6.4  206.4     3.2      3.0    333.7  
 873.600     59.1  72.0  14.3      2.0   1.9   6.3     2.4     18.9     2.39     0.007     6.8  203.3     3.1      3.0    333.2  
 873.800     94.0  72.0  13.7      2.1   2.1   6.4     1.9     15.7     2.44     0.016     6.8  197.1     3.1      3.0    328.9  
 874.000     76.6  72.0  15.8      2.5   2.5   6.4     2.3     15.7     2.44     0.010     7.2  192.9     3.0      3.0    330.8  
 874.200     69.6  72.0  13.3      2.8   2.8   6.4     2.3     16.8     2.42     -0.008     7.4  189.9     3.0      2.9    337.0  
 874.400     52.1  72.0  11.9      3.0   3.0   6.4     3.0     13.3     2.48     0.022     7.7  187.7     3.0      2.8    341.4  
 874.600     59.1  72.0  13.7      3.0   2.9   6.4     2.6     12.7     2.49     0.023     8.1  187.4     3.0      2.6    338.4  
 874.800     73.1  72.0  12.8      3.2   2.9   6.4     2.2     12.2     2.50     0.019     7.8  188.5     2.9      2.5    332.5  
 875.000     55.6  72.0  15.5      3.3   3.1   6.4     2.7     10.4     2.53     0.023     7.7  190.4     2.9      2.4    331.8  
 875.200     66.1  72.0  13.9      3.1   3.0   6.4     2.4      8.2     2.57     0.053     7.1  194.5     2.8      2.3    329.4  
 875.400     66.1  72.0  13.0      2.5   2.3   6.4     2.8     16.0     2.44     -0.002     7.0  197.8     2.8      2.2    327.7  
 875.600     99.3  72.0  14.8      2.2   2.1   6.4     2.1     17.3     2.41     -0.006     7.0  199.5     2.7      2.1    326.6  
 875.800     83.6  72.0  15.7      2.7   2.5   6.4     3.0     12.2     2.50     0.055     6.5  198.5     2.6      2.1    327.4  
 876.000     69.6  72.0  17.4      3.2   2.9   6.4     3.2     14.7     2.46     0.052     6.5  195.4     2.5      2.0    332.3  
 876.200     90.5  72.0  18.4      3.0   2.8   6.4     2.4     19.7     2.37     0.014     6.7  193.3     2.4      1.9    336.2  
 876.400     97.5  72.0  15.4      2.9   2.6   6.4     2.7     21.2     2.35     0.020     6.8  190.1     2.3      1.9    339.6  
 876.600     66.1  72.0  17.1      3.0   2.8   6.4     2.4     18.4     2.39     0.046     6.9  185.9     2.2      1.8    338.7  
 876.800     33.8  72.0  16.3      2.7   2.7   6.4     2.0     20.0     2.37     0.030     6.8  180.8     2.1      1.7    337.0  
 877.000     24.2  72.0  15.2      2.6   2.7   6.4     2.2     17.3     2.41     0.051     7.0  176.3     2.0      1.7    335.8  
